,Nature mutation,Valeur fonciere,Type de voie,Code postal,Commune,Code departement,Code commune,Nombre de lots,Code type local,Type local,Surface reelle bati,Nombre pieces principales,Nature culture,Surface terrain,month,year,Prix m2 moyen region,Prix m2 moyen commune,latitude,longitude
259709,Vente,57500.0,RTE,58000.0,NEVERS,58,194,0,1.0,Maison,60.0,3.0,1,461.0,6,2018,934.0475676593892,1060.7410400696824,46.9881194908,3.15689130958
803850,Vente,100000.0,RUE,59310.0,BEUVRY-LA-FORET,59,80,0,1.0,Maison,85.0,5.0,1,154.0,11,2019,1878.2179066985084,1910.947153452441,50.4499686964,3.28271096457
393238,Vente,63000.0,RUE,81430.0,LE FRAYSSE,81,96,0,1.0,Maison,30.0,0.0,1,605.0,6,2018,1319.5912338650842,1071.3651642475172,43.9068214611,2.41660067701
1912112,Vente,13000.0,RUE,89110.0,MONTHOLON,89,3,0,1.0,Maison,20.0,1.0,1,76.0,12,2021,1311.1455525098588,1241.5006504864368,47.8710829792,3.32834802576
381736,Vente,150400.0,RUE,78300.0,POISSY,78,498,2,2.0,Appartement,44.0,2.0,0,0.0,11,2018,3577.6967096557737,3592.608918673412,48.9235359371,2.02715552772
1413318,Vente,145000.0,CHE,76490.0,MAULEVRIER-SAINTE-GERTRUDE,76,418,0,1.0,Maison,140.0,6.0,1,1094.0,5,2020,1973.9442708376116,1920.488731856379,49.5547380946,0.708077197955
487228,Vente,435000.0,RUE,75015.0,PARIS 15,75,115,2,2.0,Appartement,45.0,3.0,0,0.0,8,2018,8800.865103410846,8949.956243529103,48.8401554186,2.29355937244
781421,Vente,110000.0,RUE,56120.0,JOSSELIN,56,91,0,1.0,Maison,64.0,4.0,1,262.0,10,2019,2002.9306796341132,1124.3374303734845,47.9544411983,-2.54877600621
1072277,Vente,88000.0,GR,10160.0,RIGNY LE FERRON,10,319,0,1.0,Maison,90.0,4.0,1,188.0,12,2020,1400.9932644243477,814.3437529623311,48.2023856771,3.62729053332
1500121,Vente,190000.0,VLA,93200.0,SAINT-DENIS,93,66,0,1.0,Maison,63.0,4.0,1,263.0,7,2020,4178.525163400703,3943.143405844624,48.9295650455,2.3592429975
502270,Vente,62500.0,RUE,2100.0,SAINT QUENTIN,2,691,0,1.0,Maison,62.0,4.0,1,196.0,12,2019,1158.6612505475027,1005.8796067734654,49.8472336321,3.27769499462
444169,Vente,194100.0,RUE,92600.0,ASNIERES-SUR-SEINE,92,4,3,2.0,Appartement,32.0,2.0,0,0.0,10,2018,5815.240033179571,5569.505644453174,48.9153530123,2.2880384663
358580,Vente,178000.0,RUE,76800.0,SAINT-ETIENNE-DU-ROUVRAY,76,575,0,1.0,Maison,110.0,7.0,1,283.0,7,2018,1849.0727098273976,1775.6578859459687,49.3814944369,1.08976892912
1225600,Vente,137000.0,BD,38160.0,SAINT-MARCELLIN,38,416,2,2.0,Appartement,86.0,5.0,0,0.0,7,2020,2369.9991952531614,1714.1224538196411,45.1534136901,5.31720171085
1676476,Vente,60000.0,RUE,34290.0,SERVIAN,34,300,0,1.0,Maison,75.0,4.0,1,54.0,6,2021,2772.260140131778,1866.1838907850429,43.4143351267,3.30645261407
1656012,Vente,55000.0,RUE,32290.0,MARGOUET-MEYMES,32,235,0,1.0,Maison,65.0,2.0,1,590.0,2,2021,1407.6684795516085,872.4812337421032,43.7253897531,0.117825300708
113814,Vente,300000.0,RUE,29217.0,LE CONQUET,29,40,0,1.0,Maison,150.0,6.0,1,564.0,8,2018,1483.0169282575966,1970.3818898739291,48.3555977933,-4.76234204122
60547,Vente,66000.0,GR,14430.0,DOZULE,14,229,0,1.0,Maison,57.0,5.0,1,155.0,2,2018,2080.303068331505,1545.373302081205,49.2290318466,-0.0448932247721
1747595,Vente,110000.0,RLE,52220.0,RIVES DERVOISES,52,411,0,1.0,Maison,102.0,4.0,1,744.0,6,2021,919.816812436825,835.8823529411766,48.489304653,4.6870081083
47782,Vente,356100.0,CHE,13013.0,MARSEILLE 13EME,13,213,0,1.0,Maison,104.0,4.0,1,469.0,6,2018,2839.6070661285644,2933.6524944584366,43.3492780005,5.43372238738
1595124,Vente,186150.0,ALL,17750.0,ETAULES,17,155,0,1.0,Maison,76.0,3.0,1,357.0,6,2021,2727.78750235737,2229.707747471934,45.7225172256,-1.10053747379
1596399,Vente,300000.0,RUE,17137.0,ESNANDES,17,153,0,1.0,Maison,90.0,5.0,1,450.0,9,2021,2727.78750235737,2499.8817192520605,46.2481463868,-1.11394343673
966053,Vente,26800.0,AV,88800.0,VITTEL,88,516,4,2.0,Appartement,38.0,2.0,0,0.0,5,2019,1107.4869831155854,1190.0248392977574,48.2012893937,5.95449403029
481569,Vente,292500.0,RUE,75010.0,PARIS 10,75,110,2,2.0,Appartement,26.0,2.0,0,0.0,7,2018,8800.865103410846,8905.176805567544,48.8760285569,2.36111290456
333969,Vente,372000.0,RUE,69210.0,L ARBRESLE,69,10,0,1.0,Maison,132.0,4.0,1,956.0,10,2018,3068.867770659194,2108.992579070284,45.8356663158,4.60937267063
211759,Vente,175000.0,AV,44730.0,SAINT-MICHEL-CHEF-CHEF,44,182,0,1.0,Maison,43.0,3.0,1,911.0,8,2018,2487.987963913667,2960.9299306681146,47.1755629767,-2.12731093246
1387081,Vente,130000.0,RTE,71290.0,SIMANDRE,71,522,0,1.0,Maison,107.0,5.0,1,923.0,5,2020,1289.2337282472513,1242.9133887056464,46.6122739185,4.98702141498
386054,Vente,254000.0,RUE,79000.0,NIORT,79,191,0,1.0,Maison,113.0,5.0,1,502.0,8,2018,1153.6641731787952,1473.2549695400037,46.328260242,-0.465353019369
1727939,Vente,232000.0,RUE,45480.0,BAZOCHES-LES-GALLERANDES,45,25,0,1.0,Maison,58.0,3.0,1,709.0,10,2021,1926.7813248541463,1811.6142284190216,48.1622351028,2.05200165302
535881,Vente,155000.0,RUE,11120.0,GINESTAS,11,164,0,1.0,Maison,100.0,4.0,1,469.0,12,2019,1544.3543809940743,1611.9503569072904,43.2758588523,2.87717593442
394966,Vente,38000.0,RUE,81330.0,LACAZE,81,125,0,1.0,Maison,75.0,4.0,1,310.0,7,2018,1319.5912338650842,610.0857330461905,43.7430264431,2.50920247729
1928460,Vente,140000.0,AV,93800.0,EPINAY SUR SEINE,93,31,2,2.0,Appartement,61.0,3.0,0,0.0,4,2021,4299.583526849284,3305.8113734771377,48.9550132062,2.31453043231
1086914,Vente,90000.0,AV,13011.0,MARSEILLE 11EME,13,211,2,2.0,Appartement,72.0,4.0,0,0.0,1,2020,3067.933841152668,3053.535779491709,43.2884471881,5.48381466229
577651,Vente,80000.0,RUE,18000.0,BOURGES,18,33,1,2.0,Appartement,96.0,5.0,0,0.0,3,2019,1094.4539937441978,1497.770714836833,47.0749572013,2.40417137557
1077115,Vente,287930.0,RUE,11100.0,NARBONNE,11,262,0,1.0,Maison,96.0,5.0,1,479.0,11,2020,1616.944898180507,2031.965447900465,43.1652399898,3.02023868739
1239811,Vente,100000.0,RUE,42160.0,ANDREZIEUX-BOUTHEON,42,5,2,2.0,Appartement,87.0,5.0,0,0.0,5,2020,1489.3747475130892,1913.5838975986733,45.5349913099,4.27650426979
1357794,Vente,144800.0,RUE,63570.0,BRASSAC-LES-MINES,63,50,0,1.0,Maison,107.0,6.0,1,725.0,2,2020,1677.540675257258,1143.9673839712366,45.4199156591,3.32061008295
1713771,Vente,110000.0,RUE,44800.0,ST-HERBLAIN,44,162,2,2.0,Appartement,89.0,4.0,0,0.0,2,2021,3057.976613970435,3245.8614724704707,47.2243762412,-1.63434818692
1639100,Vente,312125.0,CITE,29217.0,PLOUGONVELIN,29,190,0,1.0,Maison,112.0,7.0,1,736.0,9,2021,1895.38258333154,2830.1880215499173,48.3513274854,-4.71760872698
413508,Vente,75000.0,RUE,85600.0,TREIZE-SEPTIERS,85,295,0,1.0,Maison,51.0,3.0,1,288.0,9,2018,1953.329457617189,1421.1706171565852,46.9975586143,-1.23193361154
783743,Vente,182000.0,RUE,58640.0,VARENNES-VAUZELLES,58,303,0,1.0,Maison,138.0,5.0,1,686.0,11,2019,913.4265243217716,1333.6119744258813,47.0372879565,3.14354311851
225080,Vente,176350.0,RTE,47110.0,ALLEZ-ET-CAZENEUVE,47,6,0,1.0,Maison,107.0,4.0,1,1230.0,10,2018,1199.8115488598687,1648.1308411214952,44.3819408307,0.628501205807
1197572,Vente,185000.0,CHE,34300.0,AGDE,34,3,0,1.0,Maison,48.0,3.0,1,293.0,3,2020,2604.6969799701315,2722.0012389807125,43.309129116,3.48447903133
252812,Vente,127000.0,RUE,56000.0,VANNES,56,260,2,2.0,Appartement,67.0,4.0,0,0.0,6,2018,1958.1929763389453,2551.451818499223,47.6597493766,-2.75714329498
380629,Vente,214470.0,RUE,78100.0,SAINT-GERMAIN-EN-LAYE,78,551,2,2.0,Appartement,66.0,4.0,0,0.0,6,2018,3577.6967096557737,5144.49861381929,48.9407041394,2.09870929375
792647,Vente,315000.0,RUE,59112.0,CARNIN,59,133,0,1.0,Maison,105.0,4.0,1,919.0,8,2019,1878.2179066985084,2248.363668489784,50.5196965937,2.96024467267
857910,Vente,300000.0,RUE,69003.0,LYON 3EME,69,383,3,2.0,Appartement,63.0,2.0,0,0.0,10,2019,3264.717584975805,4217.375096925628,45.7533552486,4.86918522013
1394235,Vente,185000.0,CHE,73470.0,NOVALAISE,73,191,0,1.0,Maison,52.0,3.0,1,323.0,5,2020,3209.548090111913,2415.282896834776,45.5883066651,5.77193430721
740308,Vente,5000.0,RUE,46200.0,SOUILLAC,46,309,0,3.0,Dépendance,0.0,0.0,1,121.0,1,2019,1322.4464214386046,1222.604736609068,44.9069531608,1.46396482842
245254,Vente,98000.0,PL,54700.0,PONT A MOUSSON,54,431,1,2.0,Appartement,88.0,4.0,0,0.0,2,2018,1552.8207867135216,1484.275885400998,48.9219828048,6.05392690748
452922,Vente,95000.0,AV,93350.0,LE BOURGET,93,13,2,2.0,Appartement,33.0,2.0,0,0.0,8,2018,3707.340632937853,2971.887700170455,48.9361847458,2.42827855593
124896,Vente,209950.0,RUE,30300.0,BEAUCAIRE,30,32,0,1.0,Maison,88.0,4.0,1,224.0,6,2018,2051.3576256639235,1515.458515311899,43.7797429509,4.59380296865
436848,Vente,273000.0,RUE,91300.0,MASSY,91,377,1,2.0,Appartement,78.0,4.0,0,0.0,8,2018,3070.8236620285943,3184.591620188441,48.7277896426,2.27513131903
538072,Vente,15000.0,RUE,12260.0,AMBEYRAC,12,7,0,1.0,Maison,45.0,0.0,1,82.0,7,2019,1272.1763712335726,850.9492197068621,44.4943534957,1.9357162857
1096640,Vente,86000.0,RUE,14000.0,CAEN,14,118,1,2.0,Appartement,28.0,1.0,0,0.0,12,2020,2391.3877858426026,2811.792847713387,49.1847936737,-0.369801713036
665299,Vente,136660.0,RUE,34000.0,MONTPELLIER,34,172,1,2.0,Appartement,45.0,2.0,0,0.0,11,2019,2551.8065656586814,2968.4463014020803,43.6134409138,3.86851657896
1360405,Vente,180000.0,RUE,64510.0,BOEIL BEZING,64,133,0,1.0,Maison,89.0,4.0,1,966.0,12,2020,2527.572869805229,1758.017068026006,43.2275428829,-0.25100390075
784523,Vente,135000.0,RUE,58200.0,COSNE-COURS-SUR-LOIRE,58,86,0,1.0,Maison,115.0,5.0,1,371.0,6,2019,913.4265243217716,1042.562241163888,47.4029099422,2.94284103771
150253,Vente,62780.0,IMP,33990.0,HOURTIN,33,203,1,2.0,Appartement,28.0,2.0,0,0.0,12,2018,2977.687078641681,2470.482461830573,45.1807913533,-1.06580080764
277083,Vente,238000.0,IMP,59870.0,VRED,59,629,0,1.0,Maison,118.0,5.0,0,559.0,1,2018,1841.043513312609,1910.0892095684317,50.3939409921,3.23217277359
3506,Vente,472000.0,RUE,1090.0,MONTMERLE-SUR-SAONE,1,263,0,4.0,Local industriel. commercial ou assimilé,0.0,0.0,1,36.0,7,2018,2000.4901120239665,2552.6244593260503,46.0849573236,4.7608579486
917906,Vente,231106.0,RTE,78990.0,ELANCOURT,78,208,0,1.0,Maison,58.0,3.0,1,34.0,2,2019,3616.388670675279,3029.8693208599,48.7781596518,1.96049898519
1738395,Vente,20000.0,RUE,49490.0,NOYANT-VILLAGES,49,228,0,3.0,Dépendance,0.0,0.0,1,1083.0,3,2021,2038.62644903029,817.2218817408452,47.5070164198,0.109706678066
1750675,Vente,150000.0,CHE,53940.0,LE GENEST-SAINT-ISLE,53,103,0,1.0,Maison,108.0,5.0,1,436.0,9,2021,1418.1120056334817,1568.5954864123244,48.104173372,-0.895219707599
210604,Vente,307800.0,RUE,44190.0,GORGES,44,64,0,1.0,Maison,127.0,6.0,1,828.0,12,2018,2487.987963913667,2000.3264642093409,47.1044539402,-1.31077198119
141786,Vente,494000.0,ALL,33600.0,PESSAC,33,318,0,1.0,Maison,110.0,5.0,1,661.0,8,2018,2977.687078641681,3442.503167155971,44.7915990521,-0.676303166277
760908,Vente,246650.0,RUE,51170.0,LAGERY,51,314,0,1.0,Maison,92.0,3.0,1,698.0,8,2019,1826.770090244274,1990.8816425120772,49.2071148254,3.732444574
568965,Vente,110000.0,RUE,17000.0,LA ROCHELLE,17,300,2,2.0,Appartement,27.0,1.0,0,0.0,6,2019,2403.49003128563,3619.919316824168,46.1620643972,-1.17465702836
1098147,Vente,139200.0,RUE,14450.0,GRANDCAMP-MAISY,14,312,0,1.0,Maison,50.0,3.0,1,210.0,5,2020,2391.3877858426026,1680.2706209360292,49.3754390087,-1.04464900141
1761929,Vente,320000.0,RUE,56620.0,PONT-SCORFF,56,179,0,1.0,Maison,118.0,3.0,1,282.0,9,2021,2353.1240653771283,2099.928824357094,47.839096749,-3.41967999137
1198297,Vente,91000.0,AV,34300.0,AGDE,34,3,1,2.0,Appartement,39.0,2.0,0,0.0,5,2020,2604.6969799701315,2722.0012389807125,43.309129116,3.48447903133
894636,Vente,184000.0,ALL,76550.0,TOURVILLE-SUR-ARQUES,76,707,0,1.0,Maison,136.0,5.0,1,734.0,5,2019,1894.3399352165504,1646.8262455653703,49.8597127895,1.09318958112
1002610,Vente,145000.0,AV,94260.0,FRESNES,94,34,2,2.0,Appartement,42.0,1.0,0,0.0,6,2019,4640.792524670271,3222.537266701249,48.7571343016,2.32612839743
1680547,Vente,212000.0,ALL,35850.0,PARTHENAY-DE-BRETAGNE,35,216,0,1.0,Maison,90.0,4.0,1,185.0,10,2021,2527.47130672868,2496.8932568297323,48.1884515911,-1.829797127
1152450,Vente,15000.0,RUE,29900.0,CONCARNEAU,29,39,0,1.0,Maison,15.0,1.0,1,116.0,5,2020,1675.4132547136371,2171.1809821581373,47.8966260003,-3.90716871821
1044546,Vente,92000.0,RUE,2100.0,SAINT QUENTIN,2,691,0,1.0,Maison,78.0,4.0,1,68.0,11,2020,1198.14719255845,1076.317037094943,49.8472336321,3.27769499462
903565,Vente,175000.0,BD,77120.0,COULOMMIERS,77,131,3,2.0,Appartement,73.0,3.0,0,0.0,4,2019,2792.0084946453035,2289.37771182398,48.8122991656,3.09124381847
435470,Vente,167000.0,RUE,91800.0,BRUNOY,91,114,0,1.0,Maison,50.0,3.0,1,62.0,12,2018,3070.8236620285943,3255.1448110656265,48.6964396294,2.50394753271
1211681,Vente,140000.0,RUE,36000.0,CHATEAUROUX,36,44,0,1.0,Maison,85.0,5.0,1,176.0,12,2020,979.8470207261016,1276.8221968489274,46.8029617828,1.69399812001
646837,Vente,216300.0,RTE,32270.0,MARSAN,32,237,0,1.0,Maison,100.0,5.0,1,982.0,3,2019,1318.3576687437337,1728.7585850281382,43.6479275697,0.723516841894
779665,Vente,330000.0,RUE,56170.0,QUIBERON,56,186,0,1.0,Maison,64.0,4.0,1,462.0,1,2019,2002.9306796341132,3401.5897057358598,47.4881657518,-3.12282400639
536984,Vente,34150.0,RUE,12470.0,PRADES-D AUBRAC,12,187,0,1.0,Maison,37.0,2.0,1,98.0,12,2019,1272.1763712335726,964.4587339501634,44.5418402145,2.97032674456
101214,Vente,171700.0,AV,26200.0,MONTELIMAR,26,198,0,1.0,Maison,76.0,4.0,0,331.0,9,2018,1781.9046131563582,1714.356526339025,44.5540845734,4.74869387765
1843000,Vente,150000.0,RUE,74000.0,ANNECY,74,10,1,2.0,Appartement,24.0,1.0,0,0.0,3,2021,3820.410404412404,4704.529533720639,45.8906432566,6.12551773598
406012,Vente,10100.0,CHE,83330.0,LE BEAUSSET,83,16,0,1.0,Maison,12.0,2.0,1,22.0,7,2018,3026.020634453522,3386.5083918919318,43.2069315557,5.82020086096
393308,Vente,217000.0,CHE,81600.0,FENOLS,81,90,0,1.0,Maison,110.0,6.0,1,448.0,6,2018,1319.5912338650842,1972.7272727272727,43.8495035215,2.0559946114
1254198,Vente,280000.0,RUE,44410.0,SAINT-LYPHARD,44,175,0,1.0,Maison,85.0,3.0,1,1029.0,10,2020,2812.51662790784,2429.9333574935667,47.3781648768,-2.33524206651
1922502,Vente,254000.0,AV,92230.0,GENNEVILLIERS,92,36,1,2.0,Appartement,44.0,2.0,0,0.0,9,2021,6936.362998841857,4953.032097876937,48.9345190548,2.29384987973
1801113,Vente,184920.0,RUE,62880.0,VENDIN LE VIEIL,62,842,0,1.0,Maison,74.0,4.0,1,376.0,9,2021,1736.850043113914,1868.487689301606,50.4703783932,2.85384547397
897605,Vente,129500.0,RUE,76620.0,LE HAVRE,76,351,0,1.0,Maison,62.0,5.0,1,89.0,12,2019,1894.3399352165504,1971.1912699372929,49.498452502,0.140153719153
37372,Vente,271800.0,RUE,12510.0,OLEMPS,12,174,0,1.0,Maison,109.0,4.0,1,1111.0,2,2018,1272.4898591071756,1864.4754620834608,44.338471851,2.54774198749
394182,Vente,158750.0,ALL,81440.0,LAUTREC,81,139,0,1.0,Maison,140.0,6.0,1,70.0,2,2018,1319.5912338650842,1336.0961429476702,43.7052468491,2.12929403349
1357888,Vente,48000.0,RUE,63680.0,CHASTREIX,63,98,1,2.0,Appartement,32.0,1.0,0,0.0,5,2020,1677.540675257258,1736.8915363466706,45.5125229995,2.7534823407
1746957,Vente,155600.0,RUE,51000.0,CHALONS EN CHAMPAGNE,51,108,0,1.0,Maison,83.0,4.0,1,289.0,12,2021,2064.405883219692,1537.7744704158729,48.9640892125,4.37883539725
1764842,Vente,64000.0,PL,56320.0,LE FAOUET,56,57,0,4.0,Local industriel. commercial ou assimilé,80.0,0.0,1,60.0,8,2021,2353.1240653771283,1325.4728683009216,48.048735927,-3.50863192945
1643034,Vente,285000.0,RUE,30600.0,VAUVERT,30,341,0,1.0,Maison,121.0,6.0,1,739.0,4,2021,2278.110427584736,2269.208816189292,43.6258468531,4.30597093294
175444,Vente,135000.0,RUE,37260.0,MONTS,37,159,0,1.0,Maison,78.0,4.0,1,389.0,2,2018,1951.6906606025989,2047.891902641902,47.2779892588,0.64548356483
191639,Vente,251607.0,RTE,40180.0,TERCIS LES BAINS,40,314,0,1.0,Maison,142.0,4.0,1,895.0,1,2018,2237.755987010988,1986.1831419192824,43.6706423841,-1.11540319377
1408022,Vente,70000.0,RUE,76260.0,EU,76,255,0,1.0,Maison,60.0,3.0,1,85.0,2,2020,1973.9442708376116,1412.968574592211,50.0413268784,1.42861757801
1139901,Vente,302200.0,RUE,26120.0,CHABEUIL,26,64,0,1.0,Maison,119.0,4.0,1,371.0,8,2020,1947.9134753704864,2354.4039463505133,44.9082255842,5.00743034189
17687,Vente,70000.0,BD,6000.0,NICE,6,88,2,2.0,Appartement,30.0,1.0,0,0.0,4,2018,3717.7486801083337,3756.780183199628,43.7119992661,7.23826889465
985291,Vente,283000.0,RUE,92270.0,BOIS-COLOMBES,92,9,2,2.0,Appartement,40.0,2.0,0,0.0,9,2019,6185.649581291816,5894.568897208876,48.9153368426,2.26738552597
325307,Vente,110000.0,RUE,69009.0,LYON 9EME,69,389,1,2.0,Appartement,35.0,2.0,0,0.0,7,2018,3068.867770659194,3122.178041363565,45.7817805887,4.80818327822
1296307,Vente,155000.0,RUE,56230.0,MOLAC,56,135,0,1.0,Maison,135.0,5.0,1,240.0,2,2020,2149.6717443068437,1431.3541377537906,47.7362321249,-2.43951991682
1085118,Vente,93000.0,BD,13009.0,MARSEILLE 9EME,13,209,2,2.0,Appartement,52.0,2.0,0,0.0,3,2020,3067.933841152668,2660.970635030325,43.2340834927,5.45249683067
1271005,Vente,275000.0,RUE,49300.0,CHOLET,49,99,0,1.0,Maison,110.0,5.0,1,378.0,8,2020,1857.4182176390789,1763.7688886451722,47.0454402992,-0.877886189605
835302,Vente,30000.0,AV,63000.0,CLERMONT FERRAND,63,113,1,2.0,Appartement,12.0,1.0,0,0.0,6,2019,1661.454316265497,1959.7942281487656,45.7856492991,3.11554542903
1672517,Vente,350000.0,RUE,34110.0,FRONTIGNAN,34,108,0,1.0,Maison,35.0,2.0,1,480.0,5,2021,2772.260140131778,3098.148698049532,43.4482458873,3.74923522416
1246937,Vente,100000.0,PL,44310.0,SAINT-LUMINE-DE-COUTAIS,44,174,0,1.0,Maison,90.0,4.0,1,153.0,1,2020,2812.51662790784,1707.9528485603057,47.0525345648,-1.72353750567
1644309,Vente,252200.0,RUE,30240.0,LE GRAU DU ROI,30,133,2,2.0,Appartement,71.0,4.0,0,0.0,8,2021,2278.110427584736,3771.402940763338,43.5072810882,4.16622948662
1897765,Vente,20000.0,RUE,85580.0,TRIAIZE,85,297,0,3.0,Dépendance,0.0,0.0,1,331.0,12,2021,2419.145243798272,1427.199559571491,46.3792685111,-1.19928351422
1050292,Vente,285000.0,RUE,4000.0,DIGNE-LES-BAINS,4,70,0,1.0,Maison,134.0,6.0,1,825.0,6,2020,1998.7096890002028,1688.8697226330046,44.0908723554,6.23590323452
1032124,Vente,342000.0,PL,75017.0,PARIS 17,75,117,3,2.0,Appartement,30.0,2.0,0,0.0,7,2019,9376.98218434705,9337.380951064137,48.8873371665,2.30748555949
1937837,Vente,418700.0,AV,95620.0,PARMAIN,95,480,0,1.0,Maison,97.0,4.0,1,442.0,7,2021,3628.241927933318,3350.436558567006,49.1228699088,2.201277887
1918514,Vente,132000.0,AV,91550.0,PARAY-VIEILLE-POSTE,91,479,2,2.0,Appartement,54.0,2.0,0,0.0,5,2021,3464.7439325611604,4048.848822425647,48.7241848219,2.3598349385
1663312,Vente,150000.0,RUE,33500.0,ARVEYRES,33,15,0,1.0,Maison,80.0,4.0,1,840.0,1,2021,3392.8512634121525,2296.662316271484,44.8915609745,-0.2766650988
1579761,Vente,139000.0,RES,13090.0,AIX EN PROVENCE,13,1,1,2.0,Appartement,32.0,2.0,0,0.0,6,2021,3380.146699931296,4744.864211215998,43.5360708378,5.39857444582
640288,Vente,123000.0,RTE,31790.0,ST JORY,31,490,0,1.0,Maison,70.0,3.0,1,298.0,2,2019,2633.044029650342,2408.882560260782,43.739344106,1.35625454624
1038736,Vente,200000.0,IMP,1410.0,CHAMPFROMIER,1,81,0,1.0,Maison,90.0,3.0,1,166.0,1,2020,2159.6003475156917,2033.135891366021,46.220365768,5.82233573131
203861,Vente,110000.0,AV,44800.0,ST-HERBLAIN,44,162,2,2.0,Appartement,60.0,3.0,0,0.0,2,2018,2487.987963913667,2403.539412879957,47.2243762412,-1.63434818692
575176,Vente,88000.0,RUE,17100.0,SAINTES,17,415,1,2.0,Appartement,49.0,2.0,0,0.0,6,2019,2403.49003128563,1669.2699829082449,45.7422300162,-0.649623035643
955131,Vente,270000.0,RUE,85270.0,SAINT-HILAIRE-DE-RIEZ,85,226,0,1.0,Maison,118.0,7.0,1,601.0,7,2019,2032.8651790470667,2599.924531975012,46.7432732188,-1.96439228965
1783281,Vente,207400.0,RUE,59287.0,LEWARDE,59,345,0,1.0,Maison,116.0,4.0,1,554.0,6,2021,2159.521801682729,1382.4904545430225,50.3367323265,3.16865198714
228829,Vente,110000.0,RUE,49120.0,CHEMILLE-EN-ANJOU,49,92,0,1.0,Maison,96.0,3.0,1,852.0,2,2018,1650.680421202213,1129.7062131408252,47.2272268469,-0.730188160448
936447,Vente,165000.0,RUE,83340.0,CABASSE,83,26,0,1.0,Maison,65.0,3.0,1,694.0,4,2019,3028.019050128541,1797.441761955428,43.4270972655,6.23202349485
45610,Vente,74000.0,BD,13009.0,MARSEILLE 9EME,13,209,1,2.0,Appartement,20.0,1.0,0,0.0,5,2018,2839.6070661285644,2558.343213758066,43.2340834927,5.45249683067
533984,Vente,65000.0,GR,11360.0,VILLESEQUE DES CORBIERES,11,436,0,1.0,Maison,65.0,2.0,1,84.0,3,2019,1544.3543809940743,1031.8310892172965,43.0182115243,2.85759896438
1943606,Vente,132000.0,RUE,97419.0,LA POSSESSION,974,8,1,2.0,Appartement,40.0,2.0,0,0.0,3,2021,2476.4219428839274,2831.0647212793942,-20.9940292693,55.3975084985
553187,Vente,444000.0,AV,13500.0,MARTIGUES,13,56,0,1.0,Maison,120.0,4.0,1,691.0,9,2019,2905.757008219019,2889.249757047973,43.3798920489,5.04945402314
1836821,Vente,240000.0,RUE,72000.0,LE MANS,72,181,0,1.0,Maison,106.0,5.0,1,229.0,6,2021,1515.8799490732608,1957.093465710024,47.9885256718,0.200030493539
1464722,Vente,206000.0,IMP,85340.0,ILE-D'OLONNE (L'),85,112,0,1.0,Maison,110.0,4.0,1,1027.0,6,2020,2179.5947047996806,2317.5974537569496,46.570163703,-1.7737502368
1277686,Vente,222000.0,RUE,50590.0,HAUTEVILLE-SUR-MER,50,231,0,1.0,Maison,117.0,5.0,1,541.0,6,2020,1719.1843745438648,2378.7912993157274,48.9741132204,-1.54436628419
1089782,Vente,65000.0,RUE,13790.0,PEYNIER,13,72,0,1.0,Maison,55.0,2.0,1,52.0,7,2020,3067.933841152668,3363.4097550839283,43.439686405,5.62516789037
1403078,Vente,160000.0,RUE,74430.0,SAINT-JEAN-D'AULPS,74,238,0,1.0,Maison,50.0,2.0,1,213.0,11,2020,3603.5595968978914,3549.521171931451,46.2278739142,6.66076731793
1624680,Vente,327800.0,AV,26150.0,DIE,26,113,0,1.0,Maison,103.0,4.0,1,762.0,12,2021,2099.3467752309484,2005.1183658539128,44.7482217645,5.37640774818
1080166,Vente,249480.0,LOT,13016.0,MARSEILLE 16EME,13,216,0,1.0,Maison,81.0,4.0,1,95.0,3,2020,3067.933841152668,2783.18707122928,43.3649054121,5.31337828595
1663354,Vente,139600.0,RUE,33570.0,LUSSAC,33,261,0,1.0,Maison,114.0,4.0,1,418.0,1,2021,3392.8512634121525,1366.4479441512356,44.9666973699,-0.0939830004604
1646789,Vente,134000.0,AV,30133.0,LES ANGLES,30,11,1,2.0,Appartement,68.0,3.0,0,0.0,3,2021,2278.110427584736,2961.5123316573104,43.946680289,4.75255256222
1583685,Vente,210000.0,RUE,13230.0,PORT-SAINT-LOUIS,13,78,0,1.0,Maison,43.0,2.0,1,50.0,8,2021,3380.146699931296,2276.632877003795,43.4148193741,4.80679663589
964804,Vente,130000.0,RUE,87290.0,CHATEAUPONSAC,87,41,0,1.0,Maison,166.0,6.0,1,376.0,10,2019,1203.524979567434,718.1864598046913,46.1311583678,1.28041965042
458757,Vente,251000.0,AV,94700.0,MAISONS-ALFORT,94,46,2,2.0,Appartement,60.0,3.0,0,0.0,5,2018,4499.771925738402,4886.40982900864,48.8063923267,2.43818248906
487680,Vente,310000.0,RUE,75015.0,PARIS 15,75,115,1,2.0,Appartement,27.0,1.0,0,0.0,11,2018,8800.865103410846,8949.956243529103,48.8401554186,2.29355937244
955664,Vente,238000.0,RUE,85750.0,ANGLES,85,4,0,1.0,Maison,147.0,5.0,1,854.0,8,2019,2032.8651790470667,2030.0050914851784,46.3870511077,-1.40049386944
1451092,Vente,357500.0,RUE,83140.0,SIX-FOURS-LES-PLAGES,83,129,0,1.0,Maison,92.0,3.0,1,574.0,6,2020,3121.8841409643896,4125.545339436845,43.086818602,5.82924464931
125851,Vente,160000.0,RUE,30150.0,ROQUEMAURE,30,221,0,1.0,Maison,89.0,4.0,1,576.0,12,2018,2051.3576256639235,1838.095353468345,44.0414756862,4.7565701251
553856,Vente,228000.0,RUE,13750.0,PLAN-D ORGON,13,76,0,1.0,Maison,89.0,4.0,1,425.0,1,2019,2905.757008219019,2411.322180874766,43.8181261115,5.00228183234
896950,Vente,54200.0,PAS,76600.0,LE HAVRE,76,351,2,2.0,Appartement,55.0,2.0,0,0.0,9,2019,1894.3399352165504,1971.1912699372929,49.498452502,0.140153719153
895668,Vente,240000.0,RUE,76600.0,LE HAVRE,76,351,0,1.0,Maison,89.0,4.0,1,89.0,2,2019,1894.3399352165504,1971.1912699372929,49.498452502,0.140153719153
1327692,Vente,120000.0,RUE,59410.0,ANZIN,59,14,0,1.0,Maison,95.0,6.0,1,361.0,2,2020,1968.1048385144584,1181.9907849961598,50.3753643424,3.51113183833
1450396,Vente,80000.0,QUAI,83200.0,TOULON,83,137,2,2.0,Appartement,64.0,4.0,0,0.0,4,2020,3121.8841409643896,2576.5116818920906,43.1361589728,5.93239634249
1405721,Vente,138100.0,RUE,76140.0,PETIT QUEVILLY (LE),76,498,0,1.0,Maison,93.0,4.0,1,98.0,10,2020,1973.9442708376116,1819.6395988869365,49.4238134718,1.06033289032
432788,Vente,307000.0,RUE,91250.0,SAINT-GERMAIN-LES-CORBEIL,91,553,0,1.0,Maison,90.0,4.0,1,467.0,1,2018,3070.8236620285943,3096.428138236344,48.6257066899,2.49140468072
829777,Vente,73000.0,RUE,62100.0,CALAIS,62,193,0,1.0,Maison,60.0,3.0,1,64.0,10,2019,1557.9590705330434,1374.7967037736887,50.9502072754,1.87575566132
1728028,Vente,79000.0,RUE,45130.0,CHARSONVILLE,45,81,0,1.0,Maison,74.0,1.0,1,672.0,10,2021,1926.7813248541463,1320.827077077077,47.9286176741,1.57432513599
250633,Vente,30000.0,RTE,55230.0,BILLY SOUS MANGIENNES,55,53,0,1.0,Maison,66.0,3.0,1,140.0,5,2018,940.4697453472398,709.090909090909,49.3230881619,5.56172937909
1597491,Vente,156000.0,RUE,17300.0,ROCHEFORT,17,299,1,2.0,Appartement,36.0,2.0,0,0.0,12,2021,2727.78750235737,2228.7462724118486,45.9432344536,-0.972356445692
1537271,Vente,285000.0,CHE,1000.0,BOURG-EN-BRESSE,1,53,0,1.0,Maison,119.0,5.0,1,966.0,4,2021,2315.872738091747,2509.869123590332,46.2051520382,5.24602125501
204895,Vente,75000.0,CHE,44300.0,NANTES,44,109,1,2.0,Appartement,28.0,2.0,0,0.0,6,2018,2487.987963913667,3210.0487317244515,47.2316356767,-1.54831008605
393019,Vente,47000.0,RUE,81400.0,CARMAUX,81,60,0,1.0,Maison,68.0,1.0,1,272.0,3,2018,1319.5912338650842,1041.6165655483028,44.0566667256,2.16641418483
241606,Vente,99999.0,RUE,52000.0,CHAUMONT,52,121,0,1.0,Maison,73.0,4.0,1,324.0,11,2018,926.808152682048,1248.60476553504,48.0980144211,5.14070044621
877692,Vente,230200.0,RUE,73490.0,LA RAVOIRE,73,213,1,2.0,Appartement,73.0,3.0,0,0.0,2,2019,2998.695393727304,2748.5413230837257,45.5561328197,5.9602608047
58693,Vente,210800.0,RUE,14150.0,OUISTREHAM,14,488,0,1.0,Maison,70.0,3.0,1,265.0,7,2018,2080.303068331505,2644.8433404846496,49.2745280107,-0.257718317859
1656895,Vente,135000.0,RUE,32370.0,MANCIET,32,227,0,1.0,Maison,85.0,2.0,1,950.0,10,2021,1407.6684795516085,833.926399109097,43.8178857934,0.0585536753476
1511061,Vente,210500.0,RUE,94120.0,FONTENAY-SOUS-BOIS,94,33,1,2.0,Appartement,43.0,2.0,0,0.0,8,2020,4926.049433240267,5904.167708822334,48.8511046382,2.47395409774
734634,Vente,60000.0,RUE,44170.0,NOZAY,44,113,1,2.0,Appartement,63.0,3.0,0,0.0,12,2019,2672.893914551462,1789.771095138134,47.5728858483,-1.60097664616
508339,Vente,67950.0,RUE,4370.0,VILLARS-COLMARS,4,240,1,2.0,Appartement,31.0,1.0,0,0.0,9,2019,1905.281723539885,1471.8948049811916,44.198291615,6.56876674305
676604,Vente,150000.0,RUE,35230.0,BOURGBARRE,35,32,0,1.0,Maison,130.0,5.0,1,648.0,8,2019,2256.4914946590666,2126.025306714364,47.988587599,-1.62222742311
994851,Vente,235000.0,RUE,93300.0,AUBERVILLIERS,93,1,2,2.0,Appartement,45.0,2.0,0,0.0,11,2019,3880.6996304966906,3646.158482358541,48.9121722626,2.38445513768
1727065,Vente,298000.0,RUE,45100.0,ORLEANS,45,234,0,1.0,Maison,86.0,4.0,1,360.0,7,2021,1926.7813248541463,2621.760682266673,47.8828634214,1.91610357477
1001034,Vente,327000.0,IMP,94000.0,CRETEIL,94,28,0,1.0,Maison,45.0,3.0,1,341.0,9,2019,4640.792524670271,3519.007437275125,48.7837401836,2.45463530415
1378841,Vente,281500.0,RUE,69210.0,LENTILLY,69,112,2,2.0,Appartement,112.0,4.0,0,0.0,2,2020,3512.798515134791,3642.706906375703,45.812542419,4.67106123334
1282482,Vente,190000.0,RUE,51100.0,REIMS,51,454,1,2.0,Appartement,59.0,3.0,0,0.0,10,2020,1928.5651554887884,2414.471805432633,49.2514906066,4.0402302322
1049674,Vente,159200.0,RUE,4300.0,PIERRERUE,4,151,0,1.0,Maison,55.0,3.0,1,160.0,1,2020,1998.7096890002028,2525.951696069909,43.9623331645,5.83601873141
1521986,Vente,373000.0,LOT,97354.0,REMIRE MONTJOLY,973,9,0,1.0,Maison,120.0,4.0,1,1045.0,4,2020,2308.450366431336,2831.284835318296,4.88437128593,-52.2788402688
810234,Vente,116500.0,RUE,59494.0,PETITE FORET,59,459,0,1.0,Maison,132.0,5.0,1,457.0,10,2019,1878.2179066985084,1310.8251500078086,50.3747760096,3.47594179576
815280,Vente,118000.0,RUE,60170.0,TRACY LE MONT,60,641,0,1.0,Maison,89.0,3.0,1,85.0,7,2019,2113.8577232933358,1788.0854328777368,49.469047669,3.00367907538
730518,Vente,198000.0,ALL,44260.0,LAVAU-SUR-LOIRE,44,80,0,1.0,Maison,102.0,5.0,1,625.0,3,2019,2672.893914551462,1733.1244527718204,47.320865437,-1.95839196459
398237,Vente,188020.0,RUE,83680.0,LA GARDE FREINET,83,63,0,1.0,Maison,65.0,3.0,1,23.0,6,2018,3026.020634453522,2977.296237543732,43.3234160321,6.46693786821
1794646,Vente,45000.0,RUE,61270.0,SAINT-HILAIRE-SUR-RILE,61,406,0,1.0,Maison,72.0,5.0,1,802.0,1,2021,1195.1183376120698,1273.2304603027494,48.7245700882,0.507831900424
1666127,Vente,377200.0,RUE,33920.0,SAINT-CHRISTOLY-DE-BLAYE,33,382,0,1.0,Maison,138.0,5.0,1,434.0,8,2021,3392.8512634121525,1544.2094002809874,45.1439978714,-0.496519035518
1841566,Vente,179000.0,RUE,73800.0,PORTE-DE-SAVOIE,73,151,0,4.0,Local industriel. commercial ou assimilé,78.0,0.0,1,69.0,9,2021,3325.708068245809,2780.6992266008315,45.4923770493,5.9922950202
741073,Vente,156000.0,RUE,46170.0,SAINT-PAUL - FLAUGNAC,46,103,0,1.0,Maison,150.0,4.0,1,35.0,8,2019,1322.4464214386046,1152.7941176470588,44.2910612603,1.40914730428
142863,Vente,307000.0,RUE,33140.0,VILLENAVE D ORNON,33,550,0,1.0,Maison,86.0,4.0,1,421.0,12,2018,2977.687078641681,3027.285661887493,44.773185218,-0.558212256384
1586291,Vente,200000.0,AV,14390.0,CABOURG,14,117,1,2.0,Appartement,45.0,3.0,0,0.0,5,2021,2677.3409209915108,3823.624595592869,49.2834863414,-0.125512945279
1280131,Vente,152500.0,IMP,51120.0,MOEURS-VERDEY,51,369,0,1.0,Maison,86.0,4.0,1,702.0,6,2020,1928.5651554887884,1466.328596225584,48.7365194964,3.67236344176
376833,Vente,230000.0,RUE,78000.0,VERSAILLES,78,646,1,2.0,Appartement,57.0,4.0,0,0.0,4,2018,3577.6967096557737,5794.59793753753,48.8025669671,2.11789297191
965489,Vente,30000.0,RUE,87600.0,ROCHECHOUART,87,126,0,1.0,Maison,78.0,4.0,1,1005.0,12,2019,1203.524979567434,1019.0526952861678,45.8236032815,0.84280512319
1116377,Vente,24000.0,IMP,18140.0,HERRY,18,110,0,1.0,Maison,65.0,2.0,1,37.0,6,2020,1125.442838010132,697.826695396463,47.2284204871,2.9415312436
1249624,Vente,310000.0,RTE,44860.0,SAINT-AIGNAN-GRANDLIEU,44,150,0,1.0,Maison,129.0,5.0,1,250.0,9,2020,2812.51662790784,2727.6852900550384,47.1331072085,-1.62317141788
1534096,Vente,440000.0,RUE,75018.0,PARIS 18,75,118,2,2.0,Appartement,41.0,3.0,0,0.0,7,2020,10029.465888752233,9603.5112142359,48.8927350746,2.34871193387
1817668,Vente,271000.0,RUE,66380.0,PIA,66,141,0,1.0,Maison,109.0,5.0,0,440.0,5,2021,2076.75599606357,1936.16112035418,42.7487012331,2.91497381059
1098721,Vente,25000.0,ALL,14100.0,LISIEUX,14,366,2,2.0,Appartement,27.0,1.0,0,0.0,9,2020,2391.3877858426026,1387.534781254493,49.1466628463,0.238274840452
254664,Vente,275000.0,RUE,56100.0,LORIENT,56,121,0,1.0,Maison,107.0,4.0,1,402.0,3,2018,1958.1929763389453,1826.499569658683,47.7500486947,-3.37823200917
1029754,Vente,152000.0,RUE,75015.0,PARIS 15,75,115,1,2.0,Appartement,18.0,1.0,0,0.0,5,2019,9376.98218434705,9481.924975050635,48.8401554186,2.29355937244
1879337,Vente,237000.0,CHE,81160.0,ARTHES,81,18,0,1.0,Maison,129.0,5.0,1,853.0,9,2021,1507.933169692193,1674.24890740342,43.9638815505,2.22587013595
727922,Vente,325000.0,ALL,44470.0,THOUARE-SUR-LOIRE,44,204,0,1.0,Maison,116.0,6.0,1,289.0,11,2019,2672.893914551462,2919.2136591279445,47.2763256866,-1.43162198248
96957,Vente,103000.0,RUE,25550.0,DUNG,25,207,0,1.0,Maison,80.0,4.0,1,315.0,7,2018,1693.5361841869856,1349.7284694773823,47.5064924582,6.7452490029
416744,Vente,129200.0,RUE,85100.0,SABLES-D'OLONNE (LES),85,194,2,2.0,Appartement,54.0,3.0,0,0.0,6,2018,1953.329457617189,3086.4532436589534,46.5007612799,-1.79255128677
157412,Vente,199000.0,GR,34400.0,SATURARGUES,34,294,0,1.0,Maison,157.0,5.0,1,144.0,10,2018,2455.2069794897325,1831.655629348225,43.7142810482,4.11714344824
1541445,Vente,169000.0,RUE,2380.0,PONT SAINT MARD,2,616,0,1.0,Maison,107.0,2.0,1,707.0,4,2021,1276.9440874225506,998.86995296561,49.493979148,3.27934093822
1894280,Vente,50000.0,RUE,85510.0,ROCHETREJOUX,85,192,0,1.0,Maison,96.0,5.0,1,784.0,1,2021,2419.145243798272,1260.6002143790006,46.7852546732,-0.996743019108
388206,Vente,15000.0,RTE,79430.0,LA CHAPELLE-SAINT-LAURENT,79,76,0,1.0,Maison,60.0,2.0,1,485.0,12,2018,1153.6641731787952,748.0681809482248,46.7322726991,-0.466366098553
1246051,Vente,143000.0,BD,44200.0,NANTES,44,109,3,2.0,Appartement,52.0,3.0,0,0.0,10,2020,2812.51662790784,3791.958853003269,47.2316356767,-1.54831008605
1156548,Vente,120000.0,RUE,29800.0,LANDERNEAU,29,103,0,1.0,Maison,73.0,4.0,1,7.0,3,2020,1675.4132547136371,1747.4378079398227,48.4507528968,-4.2643453824
816862,Vente,165000.0,RUE,60660.0,CRAMOISY,60,173,0,1.0,Maison,123.0,5.0,1,166.0,5,2019,2113.8577232933358,2007.3355506282332,49.2489499722,2.39573291818
1208551,Vente,330000.0,RUE,35870.0,LE MINIHIC SUR RANCE,35,181,0,1.0,Maison,130.0,4.0,1,205.0,10,2020,2386.624782243987,2276.219389255018,48.5755697077,-2.01309736708
494475,Vente,155000.0,RUE,75002.0,PARIS 02,75,102,1,2.0,Appartement,19.0,1.0,0,0.0,2,2018,8800.865103410846,9433.561391772177,48.8679033789,2.34410716666
1737718,Vente,51000.0,RUE,49400.0,SAUMUR,49,328,1,2.0,Appartement,28.0,1.0,0,0.0,4,2021,2038.62644903029,1601.2899003740197,47.2673853525,-0.0830410591988
1320574,Vente,190000.0,RUE,59820.0,GRAVELINES,59,273,0,1.0,Maison,91.0,4.0,1,364.0,10,2020,1968.1048385144584,1586.7011469964093,50.9975626638,2.14413046485
165104,Vente,94500.0,VLA,35200.0,RENNES,35,238,2,2.0,Appartement,69.0,4.0,0,0.0,12,2018,2200.0660652675783,3031.8985699487694,48.1119791219,-1.68186449144
684842,Vente,85999.0,RUE,36250.0,NIHERNE,36,142,0,1.0,Maison,82.0,2.0,1,284.0,5,2019,953.3869011525554,1034.9746336092824,46.8018622942,1.55801304217
103680,Vente,72500.0,RUE,27300.0,BERNAY,27,56,0,1.0,Maison,65.0,4.0,1,123.0,1,2018,1721.698102248706,1659.3220085527598,49.0925877345,0.58959175237
1543619,Vente,4000.0,RUE,2100.0,SAINT QUENTIN,2,691,0,3.0,Dépendance,0.0,0.0,1,17.0,12,2021,1276.9440874225506,1154.7249168483868,49.8472336321,3.27769499462
756418,Vente,52000.0,RUE,50510.0,CERENCES,50,109,0,4.0,Local industriel. commercial ou assimilé,123.0,0.0,1,87.0,12,2019,1626.2400597364613,1098.1652237455137,48.9111679831,-1.43836257164
831726,Vente,25000.0,RUE,62990.0,ROYON,62,725,0,3.0,Dépendance,0.0,0.0,1,869.0,11,2019,1557.9590705330434,848.4848484848485,50.4726572315,1.99966116605
1392227,Vente,130000.0,CITE,72300.0,PRECIGNE,72,244,0,1.0,Maison,140.0,6.0,1,207.0,9,2020,1417.4407223017563,1096.149870643552,47.7644010028,-0.318024755467
1485116,Vente,122000.0,RUE,91330.0,YERRES,91,691,2,2.0,Appartement,47.0,3.0,0,0.0,11,2020,3262.919511372764,3422.020049552548,48.7157210712,2.49273020271
1862789,Vente,73000.0,PL,77400.0,LAGNY-SUR-MARNE,77,243,1,2.0,Appartement,15.0,1.0,0,0.0,11,2021,3049.7982145495107,4039.525994311064,48.8730701858,2.70978081313
443085,Vente,156000.0,AV,92700.0,COLOMBES,92,25,2,2.0,Appartement,35.0,2.0,0,0.0,4,2018,5815.240033179571,4590.47101761431,48.9225179147,2.24675160629
1415911,Vente,253000.0,RUE,77176.0,SAVIGNY-LE-TEMPLE,77,445,0,1.0,Maison,129.0,5.0,1,311.0,8,2020,2850.475936242308,2661.2707398545317,48.5884785769,2.57373861268
1839791,Vente,65000.0,RUE,73600.0,SAINT-MARCEL,73,253,0,1.0,Maison,45.0,3.0,1,73.0,3,2021,3325.708068245809,1550.4589371980676,45.4979534787,6.56606269839
1746746,Vente,210000.0,RUE,51100.0,REIMS,51,454,0,1.0,Maison,91.0,4.0,1,275.0,12,2021,2064.405883219692,2685.989123310463,49.2514906066,4.0402302322
1672384,Vente,167000.0,RUE,34560.0,VILLEVEYRAC,34,341,0,1.0,Maison,87.0,3.0,1,66.0,4,2021,2772.260140131778,2195.940240714461,43.5001280333,3.59372946669
1830429,Vente,90000.0,RUE,70400.0,HERICOURT,70,285,0,1.0,Maison,68.0,3.0,1,215.0,7,2021,1110.348376854093,1559.051051198453,47.5698613671,6.76517349246
1276081,Vente,46000.0,RUE,50140.0,MORTAIN-BOCAGE,50,359,0,1.0,Maison,103.0,4.0,1,198.0,12,2020,1719.1843745438648,814.4703966323565,48.6474805702,-0.931721848821
1091338,Vente,77330.0,RUE,13100.0,AIX EN PROVENCE,13,1,1,2.0,Appartement,16.0,1.0,0,0.0,6,2020,3067.933841152668,4353.120094801096,43.5360708378,5.39857444582
1195716,Vente,37450.0,RUE,34800.0,CLERMONT L HERAULT,34,79,1,2.0,Appartement,34.0,2.0,0,0.0,10,2020,2604.6969799701315,1869.618343156808,43.6338885209,3.41317415682
1710290,Vente,359220.0,RUE,42400.0,SAINT-CHAMOND,42,207,0,1.0,Maison,112.0,6.0,1,1200.0,12,2021,1678.9187131585106,1928.5212941899567,45.4698319517,4.50184989506
661653,Vente,460000.0,RTE,34970.0,LATTES,34,129,0,1.0,Maison,90.0,4.0,1,583.0,1,2019,2551.8065656586814,3720.7184595522576,43.5638594056,3.90226222861
479937,Vente,182595.0,RUE,75005.0,PARIS 05,75,105,1,2.0,Appartement,18.0,1.0,0,0.0,2,2018,8800.865103410846,10491.153766394244,48.8445086596,2.34985938556
1228887,Vente,117000.0,PL,40220.0,TARNOS,40,312,2,2.0,Appartement,45.0,2.0,0,0.0,4,2020,2469.70387764204,3146.648036737113,43.5367457997,-1.4653189934
775556,Vente,328792.0,RUE,56000.0,VANNES,56,260,0,1.0,Maison,68.0,4.0,1,111.0,6,2019,2002.9306796341132,2739.290469429846,47.6597493766,-2.75714329498
264714,Vente,69000.0,RUE,59370.0,MONS EN BAROEUL,59,410,1,2.0,Appartement,53.0,2.0,0,0.0,11,2018,1841.043513312609,1957.411680497817,50.6432478699,3.1087677878
559832,Vente,180000.0,RUE,14780.0,LION-SUR-MER,14,365,0,1.0,Maison,72.0,4.0,1,221.0,11,2019,2172.41313705498,2708.1155481352357,49.3007695684,-0.333954811691
921060,Vente,107000.0,RUE,79200.0,LA CHAPELLE BERTRAND,79,71,0,1.0,Maison,95.0,4.0,1,482.0,8,2019,1160.907733702783,1329.9442987013736,46.6181522688,-0.191159883501
672304,Vente,71970.0,ALL,34330.0,FRAISSE SUR AGOUT,34,107,0,1.0,Maison,80.0,2.0,1,640.0,11,2019,2551.8065656586814,990.0082578044104,43.5926354982,2.79705531131
293212,Vente,125000.0,RUE,61490.0,SAINT-CLAIR-DE-HALOUZE,61,376,0,1.0,Maison,91.0,4.0,0,1145.0,11,2018,1084.439736414826,766.0744580750371,48.6891169765,-0.626025775908
1316608,Vente,183900.0,RUE,59700.0,MARCQ EN BAROEUL,59,378,1,2.0,Appartement,74.0,3.0,0,0.0,6,2020,1968.1048385144584,3281.9673032406395,50.6753348557,3.10093583816
1157701,Vente,125500.0,RUE,29620.0,GUIMAEC,29,73,0,1.0,Maison,114.0,3.0,1,295.0,1,2020,1675.4132547136371,1543.0001606348724,48.6787759026,-3.7057088823
75438,Vente,114000.0,ALL,18000.0,BOURGES,18,33,0,1.0,Maison,84.0,3.0,1,448.0,4,2018,1113.1482035883582,1439.2801556761806,47.0749572013,2.40417137557
40991,Vente,47000.0,RES,13015.0,MARSEILLE 15EME,13,215,2,2.0,Appartement,61.0,3.0,0,0.0,8,2018,2839.6070661285644,1886.8905163304937,43.358794754,5.363407897
525864,Vente,135000.0,RUE,8300.0,SEUIL,8,416,0,1.0,Maison,118.0,5.0,1,294.0,11,2019,1105.8797596661518,1063.7947269303202,49.474185421,4.45289966908
138965,Vente,335500.0,CHEM,33160.0,SAINT MEDARD EN JALLES,33,449,0,1.0,Maison,76.0,4.0,1,881.0,8,2018,2977.687078641681,3183.8842895843013,44.8832620816,-0.784239883546
331733,Vente,79000.0,RUE,69120.0,VAULX EN VELIN,69,256,1,2.0,Appartement,36.0,1.0,0,0.0,12,2018,3068.867770659194,2233.390592350261,45.7858821061,4.92637767698
122464,Vente,54820.0,RUE,30000.0,NIMES,30,189,1,2.0,Appartement,20.0,1.0,0,0.0,7,2018,2051.3576256639235,1887.6258778202189,43.844938394,4.34806796996
1725284,Vente,140000.0,RUE,45210.0,PERS-EN-GATINAIS,45,250,0,3.0,Dépendance,0.0,0.0,1,366.0,3,2021,1926.7813248541463,1274.5036336212806,48.1174253817,2.90621310678
694330,Vente,65000.0,RTE,38410.0,CHAMROUSSE,38,567,1,2.0,Appartement,52.0,2.0,0,0.0,1,2019,2241.157614798029,2036.1090648246573,45.1197427134,5.89438297795
1799420,Vente,175000.0,RUE,62670.0,MAZINGARBE,62,563,0,1.0,Maison,73.0,5.0,1,356.0,4,2021,1736.850043113914,1710.1677456747152,50.4684201259,2.72581419392
715068,Vente,58900.0,IMP,42800.0,GENILAC,42,225,0,1.0,Maison,56.0,2.0,1,57.0,6,2019,1413.459443246409,1807.241314313511,45.5351394274,4.57332962492
965038,Vente,168000.0,RUE,87350.0,PANAZOL,87,114,0,1.0,Maison,110.0,4.0,1,450.0,11,2019,1203.524979567434,1666.9654089647715,45.8407332178,1.32357791715
1459642,Vente,185000.0,RUE,85190.0,AIZENAY,85,3,0,1.0,Maison,83.0,4.0,1,622.0,2,2020,2179.5947047996806,1923.7380161336528,46.7384516809,-1.62702889721
138280,Vente,369900.0,RUE,33110.0,LE BOUSCAT,33,69,0,1.0,Maison,57.0,3.0,1,141.0,4,2018,2977.687078641681,3884.0158367243457,44.8661298323,-0.602121558626
1369578,Vente,45300.0,RUE,66300.0,PONTEILLA,66,145,0,1.0,Maison,34.0,2.0,1,110.0,7,2020,1982.0027991228108,1948.729409523068,42.632806748,2.82639975565
1731586,Vente,213300.0,IMP,47310.0,ROQUEFORT,47,225,0,1.0,Maison,95.0,5.0,1,581.0,8,2021,1350.785794066678,2266.825638120407,44.1762971751,0.557230787746
1620270,Vente,220000.0,RUE,25000.0,BESANCON,25,56,0,1.0,Maison,105.0,5.0,1,250.0,12,2021,1982.571908730174,2295.540990905028,47.2553872249,6.01948696494
1935351,Vente,165000.0,ALL,95440.0,ECOUEN,95,205,1,2.0,Appartement,64.0,3.0,0,0.0,3,2021,3628.241927933318,3225.4800907795934,49.0260643173,2.38485695599
1362810,Vente,58000.0,RUE,64390.0,OSSERAIN-RIVAREYTE,64,435,0,1.0,Maison,169.0,6.0,1,480.0,11,2020,2527.572869805229,647.7881093265709,43.3723824956,-0.953308055466
1410893,Vente,52500.0,RUE,76600.0,LE HAVRE,76,351,1,2.0,Appartement,32.0,1.0,0,0.0,12,2020,1973.9442708376116,2101.299441962601,49.498452502,0.140153719153
642766,Vente,154000.0,BD,31170.0,TOURNEFEUILLE,31,557,1,2.0,Appartement,66.0,3.0,0,0.0,11,2019,2633.044029650342,2974.6571596135373,43.5781918597,1.33500697752
511719,Vente,180000.0,RUE,6100.0,NICE,6,88,2,2.0,Appartement,52.0,2.0,0,0.0,4,2019,3817.534555770113,3854.102619096477,43.7119992661,7.23826889465
439685,Vente,283000.0,RUE,91580.0,ETRECHY,91,226,0,1.0,Maison,105.0,5.0,1,727.0,10,2018,3070.8236620285943,3462.064841645361,48.4924832389,2.17928848122
1195520,Vente,162000.0,QUAI,34200.0,SETE,34,301,1,2.0,Appartement,60.0,3.0,0,0.0,9,2020,2604.6969799701315,2538.061976127525,43.3917705831,3.64705148296
183087,Vente,107000.0,RTE,38630.0,LES AVENIERES VEYRINS-THUELLIN,38,22,0,1.0,Maison,90.0,3.0,1,766.0,1,2018,2176.092263880033,1744.7337048717793,45.6426437379,5.56958624007
1755599,Vente,120000.0,RUE,54640.0,TUCQUEGNIEUX,54,536,0,1.0,Maison,95.0,3.0,1,450.0,7,2021,1793.9462163789826,1450.2964949106686,49.3071016735,5.89392083172
951678,Vente,124500.0,RUE,85530.0,BRUFFIERE (LA),85,39,0,1.0,Maison,118.0,3.0,1,160.0,11,2019,2032.8651790470667,1459.7989923097182,47.0148006973,-1.18329758318
347645,Vente,59000.0,RTE,73660.0,SAINT-REMY-DE-MAURIENNE,73,278,0,1.0,Maison,40.0,2.0,1,434.0,7,2018,2963.16181575824,1398.6785170919693,45.3879084612,6.23781210409
770242,Vente,104762.0,RUE,54490.0,JOUDREVILLE,54,284,0,1.0,Maison,121.0,5.0,1,67.0,4,2019,1603.2289948993437,675.6595961618422,49.288175052,5.77928680152
980701,Vente,237050.0,RUE,91150.0,MORIGNY-CHAMPIGNY,91,433,0,1.0,Maison,68.0,4.0,1,921.0,10,2019,3141.1953876041293,2456.931007763933,48.4409475427,2.20748797746
1875157,Vente,52500.0,RUE,80700.0,CARREPUIS,80,176,0,1.0,Maison,60.0,2.0,1,531.0,12,2021,1825.4242149396723,1157.5712133020909,49.7045602877,2.81927389833
122024,Vente,253000.0,AV,30310.0,VERGEZE,30,344,0,1.0,Maison,130.0,4.0,1,380.0,6,2018,2051.3576256639235,2615.9014144130965,43.7375360363,4.23360990528
1573998,Vente,82000.0,RUE,13005.0,MARSEILLE 5EME,13,205,1,2.0,Appartement,34.0,1.0,0,0.0,2,2021,3380.146699931296,3277.8165876904472,43.2928061953,5.3975770959
1462594,Vente,228125.0,RUE,85510.0,BOUPERE (LE),85,31,0,1.0,Maison,140.0,5.0,1,778.0,8,2020,2179.5947047996806,1220.491729599506,46.7877960262,-0.930897406714
1179617,Vente,219700.0,AV,33460.0,CUSSAC-FORT-MEDOC,33,146,0,1.0,Maison,88.0,4.0,1,420.0,10,2020,3204.131244492545,2214.0853738293035,45.1199548347,-0.72618379335
1281704,Vente,223505.0,RUE,51150.0,AY-CHAMPAGNE,51,30,0,1.0,Maison,106.0,6.0,1,272.0,7,2020,1928.5651554887884,1752.3366869219608,49.0625907596,3.9973447815
1041753,Vente,175000.0,AV,1330.0,VILLARS-LES-DOMBES,1,443,1,2.0,Appartement,120.0,5.0,0,0.0,10,2020,2159.6003475156917,2403.574049678551,45.9927150222,5.04507856642
825448,Vente,296000.0,RUE,62410.0,WINGLES,62,895,0,4.0,Local industriel. commercial ou assimilé,104.0,0.0,1,76.0,1,2019,1557.9590705330434,1482.5099307867313,50.4951923669,2.85777326738
770827,Vente,37500.0,RUE,54240.0,JOEUF,54,280,3,2.0,Appartement,66.0,3.0,0,0.0,8,2019,1603.2289948993437,970.7225450772702,49.2320250417,6.01169605322
365292,Vente,45000.0,RUE,76210.0,BOLBEC,76,114,0,1.0,Maison,60.0,3.0,1,438.0,7,2018,1849.0727098273976,1222.7635880608354,49.5754807674,0.484404802201
864180,Vente,178000.0,GR,69340.0,FRANCHEVILLE,69,89,2,2.0,Appartement,57.0,3.0,0,0.0,9,2019,3264.717584975805,3151.5403712674074,45.7378794318,4.75508314041
1090197,Vente,382600.0,IMP,13640.0,LA ROQUE D'ANTHERON,13,84,0,1.0,Maison,158.0,6.0,1,776.0,9,2020,3067.933841152668,2622.2858506045104,43.7176409517,5.30157633559
1272644,Vente,147500.0,RUE,49400.0,SAUMUR,49,328,0,1.0,Maison,88.0,4.0,1,715.0,10,2020,1857.4182176390789,1485.5706001833394,47.2673853525,-0.0830410591988
539507,Vente,84000.0,BD,13004.0,MARSEILLE 4EME,13,204,2,2.0,Appartement,55.0,2.0,0,0.0,5,2019,2905.757008219019,2373.028229094582,43.306733355,5.40087488752
130927,Vente,319600.0,ALL,31840.0,AUSSONNE,31,32,0,1.0,Maison,111.0,5.0,1,657.0,4,2018,2563.160254319894,2560.781906040697,43.6836034494,1.32887054853
1451408,Vente,92000.0,RUE,83000.0,TOULON,83,137,1,2.0,Appartement,24.0,1.0,0,0.0,8,2020,3121.8841409643896,2576.5116818920906,43.1361589728,5.93239634249
425104,Vente,129900.0,RUE,87220.0,FEYTIAT,87,65,0,1.0,Maison,120.0,5.0,1,687.0,9,2018,1192.7031277708747,1693.8050145966938,45.8054368217,1.32945260238
1262098,Vente,100000.0,ALL,45600.0,SULLY-SUR-LOIRE,45,315,0,1.0,Maison,45.0,2.0,1,189.0,8,2020,1810.5255059599635,1411.1949577436942,47.7526229305,2.35647713689
846339,Vente,87000.0,AV,65100.0,LOURDES,65,286,0,1.0,Maison,100.0,4.0,1,106.0,11,2019,1559.2563819233624,1112.3369829395017,43.1074297344,-0.0768069387932
264670,Vente,180000.0,AV,59520.0,MARQUETTE-LEZ-LILLE,59,386,0,1.0,Maison,81.0,5.0,1,176.0,11,2018,1841.043513312609,2694.350722578697,50.67409511,3.05886328577
1493903,Vente,260000.0,PL,92800.0,PUTEAUX,92,62,1,2.0,Appartement,33.0,1.0,0,0.0,11,2020,6546.771663192075,7136.455996008122,48.8837094969,2.23834178314
1448116,Vente,140000.0,RUE,83470.0,SEILLONS-SOURCE-D ARGENS,83,125,0,1.0,Maison,72.0,3.0,1,219.0,7,2020,3121.8841409643896,2564.866547263355,43.5150970565,5.87693570046
1308136,Vente,135000.0,RUE,59000.0,LILLE,59,350,1,2.0,Appartement,71.0,3.0,0,0.0,9,2020,1968.1048385144584,3247.067894233545,50.6317183168,3.04783272312
408303,Vente,57520.0,RUE,84000.0,AVIGNON,84,7,1,2.0,Appartement,78.0,3.0,0,0.0,7,2018,2165.896148808304,2062.781027722727,43.9352448339,4.84071572505
1882996,Vente,330000.0,VTE,83300.0,DRAGUIGNAN,83,50,0,1.0,Maison,89.0,4.0,1,552.0,4,2021,3274.2657608935,2115.773453054688,43.5357513285,6.45436569191
142219,Vente,107250.0,AV,33700.0,MERIGNAC,33,281,0,1.0,Maison,50.0,2.0,1,300.0,9,2018,2977.687078641681,3201.641145434749,44.8322953289,-0.681733084891
49420,Vente,175000.0,PL,13410.0,LAMBESC,13,50,0,1.0,Maison,41.0,2.0,1,38.0,4,2018,2839.6070661285644,3166.549129992522,43.6615217681,5.25191446931
996159,Vente,35000.0,RUE,93150.0,LE BLANC-MESNIL,93,7,2,2.0,Appartement,32.0,1.0,0,0.0,7,2019,3880.6996304966906,3467.4311832547464,48.9395475536,2.46112148528
476935,Vente,295000.0,CHE,97419.0,LA POSSESSION,974,8,0,1.0,Maison,140.0,5.0,1,382.0,3,2018,2270.206770630254,2751.8221554537813,-20.9940292693,55.3975084985
185140,Vente,214340.0,IMP,38070.0,SAINT-QUENTIN-FALLAVIER,38,449,0,1.0,Maison,90.0,4.0,1,248.0,3,2018,2176.092263880033,2113.180105192087,45.6396427762,5.10856784756
613886,Vente,110000.0,BD,28150.0,LES VILLAGES VOVEENS,28,422,0,1.0,Maison,69.0,4.0,1,383.0,12,2019,1760.1115257389774,1415.7646780673278,48.269861494,1.6311008246
621222,Vente,65500.0,RUE,29200.0,BREST,29,19,2,2.0,Appartement,72.0,3.0,0,0.0,5,2019,1539.5439712293175,1539.1982777488272,48.4004997828,-4.5027907853
437491,Vente,275000.0,RUE,91550.0,PARAY-VIEILLE-POSTE,91,479,0,1.0,Maison,54.0,2.0,1,419.0,11,2018,3070.8236620285943,4123.792915791054,48.7241848219,2.3598349385
1547200,Vente,175000.0,RUE,4250.0,MOTTE-DU-CAIRE,4,134,0,1.0,Maison,120.0,5.0,1,142.0,5,2021,2031.9205467387203,1744.6195184223818,44.3408705676,6.03052669324
535776,Vente,191000.0,RUE,11130.0,SIGEAN,11,379,0,1.0,Maison,76.0,3.0,1,279.0,12,2019,1544.3543809940743,1803.894699980421,43.0395983609,2.98124209143
1681018,Vente,191000.0,RUE,35290.0,LE CROUAIS,35,91,0,1.0,Maison,111.0,5.0,1,681.0,1,2021,2527.47130672868,1212.5125346170917,48.2095149128,-2.15053922323
882594,Vente,189700.0,CHE,73230.0,SAINT-ALBAN-LEYSSE,73,222,0,1.0,Maison,85.0,3.0,1,55.0,12,2019,2998.695393727304,2690.059418714167,45.5881109422,5.95790977715
1280607,Vente,251500.0,RUE,51370.0,LES MESNEUX,51,365,0,1.0,Maison,140.0,6.0,1,644.0,2,2020,1928.5651554887884,2217.3970202831592,49.2208240652,3.96116226522
58272,Vente,150000.0,RUE,14830.0,LANGRUNE-SUR-MER,14,354,0,1.0,Maison,77.0,4.0,1,237.0,4,2018,2080.303068331505,2123.718168852089,49.3129812752,-0.378266023421
1809775,Vente,150000.0,RUE,63430.0,PONT-DU-CHATEAU,63,284,0,1.0,Maison,85.0,2.0,1,951.0,10,2021,1744.0946925601722,2141.2888789422414,45.7984084969,3.23957738391
676530,Vente,358000.0,ALL,35760.0,MONTGERMONT,35,189,0,1.0,Maison,128.0,5.0,1,610.0,8,2019,2256.4914946590666,2792.966862619829,48.1538376773,-1.71729477816
1148931,Vente,310000.0,IMP,28410.0,ABONDANT,28,1,0,1.0,Maison,104.0,5.0,1,905.0,11,2020,1794.3175373774116,2249.582045438595,48.795057031,1.42001117062
156988,Vente,57000.0,ALL,34980.0,SAINT-GELY-DU-FESC,34,255,2,2.0,Appartement,33.0,1.0,0,0.0,9,2018,2455.2069794897325,3092.955550766189,43.6896523672,3.80969577473
278903,Vente,167780.0,RUE,59450.0,SIN LE NOBLE,59,569,0,1.0,Maison,92.0,5.0,1,152.0,12,2018,1841.043513312609,1085.6595049744292,50.3677512577,3.12071297192
666089,Vente,130000.0,AV,34130.0,MAUGUIO,34,154,1,2.0,Appartement,55.0,2.0,0,0.0,12,2019,2551.8065656586814,3493.7424445790307,43.5928279472,4.00425693337
1657406,Vente,341600.0,AV,33520.0,BRUGES,33,75,0,1.0,Maison,93.0,5.0,1,133.0,1,2021,3392.8512634121525,3955.361522006492,44.8889469436,-0.600427664273
173621,Vente,197000.0,RUE,37270.0,LARCAY,37,124,0,1.0,Maison,104.0,4.0,1,162.0,5,2018,1951.6906606025989,2105.2246849074195,47.352701653,0.776083557562
827304,Vente,157000.0,RUE,62740.0,FOUQUIERES LES LENS,62,351,0,1.0,Maison,117.0,7.0,1,457.0,9,2019,1557.9590705330434,1448.7490755099311,50.4292454614,2.90611987264
272488,Vente,128500.0,RUE,59193.0,ERQUINGHEM-LYS,59,202,0,1.0,Maison,76.0,3.0,1,77.0,8,2018,1841.043513312609,2027.0976680469391,50.6700847929,2.84140786831
570283,Vente,132000.0,RUE,17000.0,LA ROCHELLE,17,300,1,2.0,Appartement,34.0,2.0,0,0.0,10,2019,2403.49003128563,3619.919316824168,46.1620643972,-1.17465702836
128193,Vente,141000.0,BD,31400.0,TOULOUSE,31,555,2,2.0,Appartement,43.0,4.0,0,0.0,6,2018,2563.160254319894,3181.406352813878,43.5963814303,1.43167293364
1298022,Vente,200000.0,RUE,56890.0,MEUCON,56,132,0,1.0,Maison,100.0,5.0,1,357.0,11,2020,2149.6717443068437,2311.651358132824,47.7239745954,-2.77407412753
264912,Vente,312000.0,RUE,59000.0,LILLE,59,350,2,2.0,Appartement,91.0,3.0,0,0.0,12,2018,1841.043513312609,2886.5211232273195,50.6317183168,3.04783272312
1517130,Vente,148000.0,RUE,95550.0,BESSANCOURT,95,60,0,1.0,Maison,138.0,5.0,1,538.0,5,2020,3442.3992381360126,3973.023182837632,49.0373082647,2.19851000707
819196,Vente,45000.0,RUE,61800.0,TINCHEBRAY-BOCAGE,61,486,0,1.0,Maison,74.0,2.0,1,390.0,6,2019,1089.561286992802,731.9055369260313,48.7558885792,-0.736451200504
511178,Vente,100000.0,AV,6100.0,NICE,6,88,1,2.0,Appartement,22.0,1.0,0,0.0,2,2019,3817.534555770113,3854.102619096477,43.7119992661,7.23826889465
1018596,Vente,170000.0,AV,97200.0,FORT DE FRANCE,972,9,0,1.0,Maison,70.0,4.0,1,119.0,7,2019,2124.775155656931,1616.770582978305,14.6411114389,-61.0691889244
503378,Vente,32000.0,AV,2500.0,HIRSON,2,381,0,1.0,Maison,112.0,3.0,1,231.0,6,2019,1158.6612505475027,609.8186136198316,49.9426458618,4.10483732841
1498766,Vente,440000.0,IMP,93230.0,ROMAINVILLE,93,63,0,1.0,Maison,84.0,4.0,1,139.0,10,2020,4178.525163400703,6674.948107341487,48.8852118968,2.43767884231
1746582,Vente,148300.0,RUE,51100.0,REIMS,51,454,0,1.0,Maison,115.0,4.0,1,82.0,11,2021,2064.405883219692,2685.989123310463,49.2514906066,4.0402302322
1365696,Vente,140000.0,RUE,66000.0,PERPIGNAN,66,136,0,1.0,Maison,106.0,5.0,1,100.0,2,2020,1982.0027991228108,1640.0825840332195,42.6965954131,2.89936953979
307655,Vente,300000.0,RUE,63800.0,COURNON D AUVERGNE,63,124,0,1.0,Maison,115.0,5.0,1,568.0,8,2018,1596.0993253728911,2115.634394707101,45.7429670015,3.18687581638
1871037,Vente,55000.0,GR,79700.0,MAULEON,79,79,0,3.0,Dépendance,0.0,0.0,1,22.0,5,2021,1304.3494926787507,1293.7947722272545,46.946804716,-0.747142973233
218972,Vente,185000.0,ALL,45240.0,LA FERTE SAINT-AUBIN,45,146,0,1.0,Maison,89.0,4.0,1,712.0,3,2018,1723.439177769915,1837.399289838156,47.7119750833,1.92714666074
1037353,Vente,196000.0,RUE,75002.0,PARIS 02,75,102,1,2.0,Appartement,20.0,1.0,0,0.0,7,2019,9376.98218434705,9628.439702716396,48.8679033789,2.34410716666
169510,Vente,180000.0,RUE,35260.0,CANCALE,35,49,0,1.0,Maison,60.0,3.0,1,40.0,9,2018,2200.0660652675783,2863.069571441083,48.6835209896,-1.8650827351
391985,Vente,108000.0,RUE,80110.0,BEAUCOURT-EN-SANTERRE,80,64,0,1.0,Maison,130.0,3.0,1,118.0,8,2018,1588.9767374715157,765.3846153846154,49.7964929568,2.58623353641
967548,Vente,78500.0,RUE,88100.0,SAINT DIE DES VOSGES,88,413,2,2.0,Appartement,90.0,3.0,0,0.0,6,2019,1107.4869831155854,1001.1997668233772,48.2967093514,6.93809367547
1813780,Vente,441600.0,RUE,64500.0,SAINT-JEAN-DE-LUZ,64,483,1,2.0,Appartement,65.0,3.0,0,0.0,6,2021,2752.1213971805187,6187.947531538528,43.3947886873,-1.63099021573
338253,Vente,53000.0,RUE,71100.0,CHALON-SUR-SAONE,71,76,2,2.0,Appartement,49.0,2.0,0,0.0,1,2018,1221.2640663690192,1143.0732244436192,46.7900288793,4.85191555008
1277054,Vente,47500.0,ALL,50470.0,CHERBOURG-EN-COTENTIN,50,129,2,2.0,Appartement,35.0,1.0,0,0.0,10,2020,1719.1843745438648,1889.3389830130243,49.633412156,-1.63390160204
377778,Vente,154960.0,ALL,78330.0,FONTENAY LE FLEURY,78,242,2,2.0,Appartement,74.0,3.0,0,0.0,11,2018,3577.6967096557737,3109.824142920035,48.8177984988,2.04662335413
726839,Vente,385000.0,IMP,44470.0,CARQUEFOU,44,26,0,1.0,Maison,158.0,7.0,1,503.0,8,2019,2672.893914551462,2933.7846959490803,47.3017191833,-1.47277200095
904152,Vente,100000.0,RUE,77510.0,BELLOT,77,30,0,1.0,Maison,100.0,2.0,1,280.0,7,2019,2792.0084946453035,1299.2063492063492,48.8416858718,3.3240177722
607151,Vente,211000.0,RUE,26740.0,SAVASSE,26,339,0,1.0,Maison,132.0,4.0,1,1319.0,6,2019,1781.6689963968574,2041.39199907489,44.6067336832,4.77822199887
1643847,Vente,75000.0,RUE,30000.0,NIMES,30,189,1,2.0,Appartement,30.0,1.0,0,0.0,7,2021,2278.110427584736,2358.919197897482,43.844938394,4.34806796996
624690,Vente,26400.0,RUE,29690.0,LA FEUILLEE,29,54,0,1.0,Maison,60.0,2.0,1,597.0,1,2019,1539.5439712293175,759.1926126326838,48.391234337,-3.85236345367
1399474,Vente,305000.0,RUE,1200.0,ELOISE,74,109,0,1.0,Maison,81.0,5.0,1,1248.0,8,2020,3603.5595968978914,2830.398374364475,46.0837640303,5.84669856092
1766001,Vente,28000.0,RUE,58000.0,NEVERS,58,194,1,2.0,Appartement,26.0,1.0,0,0.0,6,2021,980.6977961647764,1377.066473517786,46.9881194908,3.15689130958
562883,Vente,130000.0,CHE,15130.0,SAINT-SIMON,15,215,0,1.0,Maison,96.0,4.0,1,590.0,1,2019,1121.8869728135796,1492.935275451739,44.9695334779,2.49738848961
1892717,Vente,359000.0,RTE,84530.0,VILLELAURE,84,147,0,1.0,Maison,96.0,4.0,1,1119.0,3,2021,2477.587393603105,2811.162227004588,43.7075157136,5.43085449725
123475,Vente,342000.0,IMP,30870.0,CLARENSAC,30,82,0,1.0,Maison,106.0,4.0,1,722.0,11,2018,2051.3576256639235,2303.4220907040594,43.8371741031,4.22473221709
1764036,Vente,370000.0,RUE,56800.0,PLOERMEL,56,165,0,1.0,Maison,158.0,5.0,1,1280.0,9,2021,2353.1240653771283,1713.4999538480372,47.9221801451,-2.38313563666
215519,Vente,357100.0,ALL,44350.0,GUERANDE,44,69,0,1.0,Maison,146.0,5.0,1,539.0,9,2018,2487.987963913667,2532.8955257116186,47.3313320913,-2.41703658813
450191,Vente,210000.0,ALL,93320.0,LES PAVILLONS-SOUS-BOIS,93,57,1,2.0,Appartement,91.0,4.0,0,0.0,4,2018,3707.340632937853,3356.9808350499948,48.9082060253,2.50297448267
1290251,Vente,340000.0,RUE,54500.0,VANDOEUVRE LES NANCY,54,547,0,1.0,Maison,85.0,4.0,1,236.0,8,2020,1668.699541329546,1743.7945030165763,48.6579999356,6.16531229307
1849848,Vente,179000.0,IMP,76250.0,DEVILLE-LES-ROUEN,76,216,0,1.0,Maison,67.0,4.0,1,823.0,5,2021,2152.7895751403503,1988.3246680558348,49.4661147987,1.0514305734
1756959,Vente,205000.0,RUE,55000.0,COMBLES EN BARROIS,55,120,0,1.0,Maison,123.0,6.0,1,644.0,2,2021,978.377352176166,1130.289598108747,48.7439561955,5.11375467167
634163,Vente,207000.0,CHE,30130.0,PONT ST ESPRIT,30,202,0,1.0,Maison,89.0,4.0,1,382.0,6,2019,2062.137539897605,1561.0703251836037,44.2526637065,4.63901945786
311551,Vente,256950.0,RUE,64110.0,UZOS,64,550,0,1.0,Maison,155.0,6.0,1,1019.0,4,2018,2405.437702208568,2003.8385067965105,43.2607603254,-0.349153042882
1905984,Vente,30000.0,RUE,87100.0,LIMOGES,87,85,4,2.0,Appartement,86.0,4.0,0,0.0,2,2021,1373.142449164888,1829.66698885922,45.8542549589,1.2487579024
1226561,Vente,173300.0,RUE,39100.0,DOLE,39,198,0,1.0,Maison,98.0,5.0,1,1197.0,5,2020,1391.7692370406362,1473.574838058272,47.0755452538,5.50062446099
586743,Vente,12000.0,RUE,21330.0,LAIGNES,21,336,0,1.0,Maison,30.0,2.0,1,34.0,8,2019,1882.5760811351277,393.71246594292415,47.8261016815,4.36829803111
1914316,Vente,239500.0,RUE,90500.0,BEAUCOURT,90,9,0,1.0,Maison,160.0,6.0,1,371.0,9,2021,1566.8587218790385,1440.1170792067464,47.4866458822,6.92526796011
1750662,Vente,42000.0,RUE,53540.0,SAINT-POIX,53,250,0,1.0,Maison,27.0,2.0,1,174.0,10,2021,1418.1120056334817,997.627213341073,47.9663369335,-1.04358876565
230766,Vente,126000.0,RUE,49700.0,DOUE EN ANJOU,49,125,0,1.0,Maison,136.0,4.0,1,229.0,4,2018,1650.680421202213,1225.8215205159452,47.1914715686,-0.278336056087
1091884,Vente,148000.0,AV,13130.0,BERRE L'ETANG,13,14,0,1.0,Maison,49.0,2.0,1,58.0,5,2020,3067.933841152668,2481.369390886012,43.5036442498,5.1606136975
1459294,Vente,142000.0,RUE,85170.0,BELLEVIGNY,85,19,0,1.0,Maison,114.0,5.0,1,1080.0,1,2020,2179.5947047996806,1904.630905124293,46.7756383534,-1.43313700054
63210,Vente,145000.0,IMP,16440.0,ROULLET SAINT ESTEPHE,16,287,0,1.0,Maison,87.0,4.0,1,347.0,3,2018,1151.5473061852365,1418.631879717575,45.5803788491,0.0313550273594
1441020,Vente,70000.0,RUE,81120.0,TEILLET,81,295,0,1.0,Maison,80.0,2.0,1,655.0,1,2020,1408.6678075883572,1235.6503535353536,43.8441490915,2.34648455097
1570592,Vente,101000.0,PAS,11430.0,GRUISSAN,11,170,1,2.0,Appartement,43.0,2.0,0,0.0,1,2021,1615.5159443113182,2952.8782194207142,43.1040163547,3.08229513652
1147600,Vente,120000.0,RUE,28200.0,MOLEANS,28,256,0,1.0,Maison,60.0,4.0,1,603.0,6,2020,1794.3175373774116,2000.0,48.1124611479,1.40240862093
894745,Vente,96000.0,RUE,76200.0,DIEPPE,76,217,0,1.0,Maison,46.0,3.0,1,18.0,7,2019,1894.3399352165504,1710.2314316843226,49.9222503951,1.08681168449
308378,Vente,407500.0,RUE,63130.0,ROYAT,63,308,0,1.0,Maison,135.0,6.0,1,742.0,11,2018,1596.0993253728911,2051.547164578445,45.7578437859,3.04076552996
515207,Vente,192000.0,CHE,6100.0,NICE,6,88,1,2.0,Appartement,68.0,2.0,0,0.0,9,2019,3817.534555770113,3854.102619096477,43.7119992661,7.23826889465
236575,Vente,180000.0,RUE,51000.0,CHALONS EN CHAMPAGNE,51,108,0,1.0,Maison,121.0,4.0,1,608.0,2,2018,1820.627575465123,1374.4174324857047,48.9640892125,4.37883539725
1681687,Vente,365000.0,RUE,35590.0,SAINT-GILLES,35,275,0,1.0,Maison,118.0,5.0,1,700.0,6,2021,2527.47130672868,2575.477282194402,48.1520929859,-1.85374690386
833847,Vente,66500.0,BD,63000.0,CLERMONT FERRAND,63,113,1,2.0,Appartement,30.0,2.0,0,0.0,1,2019,1661.454316265497,1959.7942281487656,45.7856492991,3.11554542903
956276,Vente,85800.0,RUE,85440.0,TALMONT-SAINT-HILAIRE,85,288,0,1.0,Maison,28.0,1.0,1,87.0,10,2019,2032.8651790470667,2385.358321011988,46.475786445,-1.62751498166
1049174,Vente,19000.0,RES,3100.0,MONTLUCON,3,185,2,2.0,Appartement,34.0,1.0,0,0.0,12,2020,1085.856629964383,872.2229107898683,46.3385883496,2.60390499777
719631,Vente,109800.0,RUE,43250.0,SAINTE-FLORINE,43,185,0,1.0,Maison,60.0,3.0,1,604.0,7,2019,1147.6006758512376,877.2820183011502,45.4018591959,3.30958888923
442030,Vente,344520.0,RUE,92500.0,RUEIL-MALMAISON,92,63,2,2.0,Appartement,59.0,3.0,0,0.0,9,2018,5815.240033179571,4970.745094937421,48.8691897371,2.1773406315
57042,Vente,14500.0,RUE,14000.0,CAEN,14,118,1,2.0,Appartement,24.0,1.0,0,0.0,9,2018,2080.303068331505,2241.313240207224,49.1847936737,-0.369801713036
573569,Vente,80000.0,RUE,17300.0,ROCHEFORT,17,299,0,1.0,Maison,70.0,3.0,1,107.0,6,2019,2403.49003128563,1838.0561683352605,45.9432344536,-0.972356445692
1913117,Vente,160000.0,RUE,89100.0,SENS,89,387,0,1.0,Maison,141.0,4.0,1,490.0,1,2021,1311.1455525098588,1665.6458846986193,48.1956727015,3.29793332552
413968,Vente,94000.0,RUE,85290.0,MORTAGNE-SUR-SEVRE,85,151,0,1.0,Maison,102.0,2.0,1,100.0,11,2018,1953.329457617189,1429.737490210693,46.9910941319,-0.946500033344
443509,Vente,321600.0,RUE,92600.0,ASNIERES-SUR-SEINE,92,4,1,2.0,Appartement,61.0,3.0,0,0.0,6,2018,5815.240033179571,5569.505644453174,48.9153530123,2.2880384663
383392,Vente,204000.0,PL,78460.0,CHEVREUSE,78,160,2,2.0,Appartement,66.0,3.0,0,0.0,2,2018,3577.6967096557737,3914.1899592967,48.707150143,2.03714431459
1037143,Vente,400000.0,RUE,75004.0,PARIS 04,75,104,1,2.0,Appartement,30.0,2.0,0,0.0,3,2019,9376.98218434705,11592.309532831803,48.854228282,2.35736193814
397215,Vente,53000.0,RUE,82700.0,MONTBARTIER,82,123,2,2.0,Appartement,47.0,2.0,0,0.0,9,2018,1412.7264575975798,1388.1001818856705,43.9148777604,1.28662456416
1423298,Vente,223500.0,RUE,77171.0,MELZ-SUR-SEINE,77,289,0,1.0,Maison,102.0,3.0,1,740.0,6,2020,2850.475936242308,1871.9040247678015,48.5040892203,3.39694181186
1398984,Vente,320000.0,RUE,74140.0,SAINT-CERGUES,74,229,0,1.0,Maison,104.0,5.0,1,81.0,6,2020,3603.5595968978914,3672.778478833068,46.2308494715,6.32552147286
447589,Vente,259000.0,RUE,92260.0,FONTENAY-AUX-ROSES,92,32,2,2.0,Appartement,64.0,3.0,0,0.0,3,2018,5815.240033179571,4407.340034554481,48.7897301312,2.28723493557
1324965,Vente,215350.0,RUE,59144.0,GOMMEGNIES,59,265,0,1.0,Maison,114.0,6.0,1,848.0,8,2020,1968.1048385144584,1467.3803855325314,50.2650047987,3.70836085584
1265977,Vente,126000.0,COTE,47140.0,DAUSSE,47,79,0,1.0,Maison,67.0,3.0,1,901.0,11,2020,1291.755341915005,1293.6364724332104,44.3878408566,0.889281458819
242241,Vente,10000.0,RUE,52410.0,EURVILLE-BIENVILLE,52,194,0,1.0,Maison,61.0,2.0,1,66.0,12,2018,926.808152682048,1037.907368811276,48.5782674919,5.02966764311
1113092,Vente,37000.0,CHE,17270.0,SAINT-PIERRE-DU-PALAIS,17,386,0,1.0,Maison,91.0,6.0,1,895.0,10,2020,2511.688405618853,1392.702099598651,45.1589862484,-0.150996652179
2601,Vente,207420.0,AV,1450.0,PONCIN,1,303,0,1.0,Maison,92.0,4.0,1,801.0,11,2018,2000.4901120239665,1328.083172029872,46.089530586,5.41681266947
68378,Vente,281000.0,RUE,17000.0,LA ROCHELLE,17,300,0,1.0,Maison,80.0,4.0,1,218.0,10,2018,2297.994837711253,3327.895438898029,46.1620643972,-1.17465702836
683150,Vente,95000.0,RUE,35610.0,SAINS,35,248,0,1.0,Maison,88.0,5.0,1,186.0,12,2019,2256.4914946590666,919.401318996232,48.5560551633,-1.60318300159
209636,Vente,228000.0,RUE,44710.0,SAINT-LEGER-LES-VIGNES,44,171,0,1.0,Maison,89.0,5.0,1,440.0,9,2018,2487.987963913667,2292.620666739784,47.1429694401,-1.7140364404
1783338,Vente,72000.0,AV,59330.0,HAUTMONT,59,291,0,1.0,Maison,120.0,4.0,1,335.0,1,2021,2159.521801682729,1067.4568948914346,50.2478507103,3.91948913803
857057,Vente,230000.0,RUE,69003.0,LYON 3EME,69,383,2,2.0,Appartement,51.0,2.0,0,0.0,6,2019,3264.717584975805,4217.375096925628,45.7533552486,4.86918522013
50971,Vente,179800.0,RES,13090.0,AIX EN PROVENCE,13,1,1,2.0,Appartement,47.0,3.0,0,0.0,9,2018,2839.6070661285644,3999.300862398208,43.5360708378,5.39857444582
1084220,Vente,132700.0,RUE,13010.0,MARSEILLE 10EME,13,210,2,2.0,Appartement,52.0,4.0,0,0.0,9,2020,3067.933841152668,2472.877229337884,43.2755155435,5.42681101081
1606808,Vente,102500.0,RUE,21200.0,BEAUNE,21,54,1,2.0,Appartement,35.0,2.0,0,0.0,7,2021,2119.614106838616,2598.3547639213807,47.0255189366,4.83767985985
451317,Vente,299000.0,RUE,93140.0,BONDY,93,10,0,1.0,Maison,100.0,5.0,1,302.0,10,2018,3707.340632937853,3330.7594800939137,48.9023234526,2.4837276939
1397646,Vente,96020.0,RES,73260.0,LES AVANCHERS VALMOREL,73,24,1,2.0,Appartement,28.0,2.0,0,0.0,12,2020,3209.548090111913,3425.5686085231764,45.4607199042,6.44362178612
962686,Vente,98000.0,BD,87000.0,LIMOGES,87,85,2,2.0,Appartement,55.0,3.0,0,0.0,2,2019,1203.524979567434,1437.285211629783,45.8542549589,1.2487579024
1325261,Vente,85000.0,AV,59720.0,LOUVROIL,59,365,0,1.0,Maison,79.0,5.0,1,316.0,10,2020,1968.1048385144584,1143.2429801537844,50.2577866904,3.95387643411
641606,Vente,327000.0,RUE,31700.0,BLAGNAC,31,69,0,1.0,Maison,115.0,6.0,1,234.0,7,2019,2633.044029650342,2968.868740012629,43.6421867862,1.37886941086
513137,Vente,444000.0,AV,6100.0,NICE,6,88,0,1.0,Maison,57.0,3.0,1,395.0,9,2019,3817.534555770113,3854.102619096477,43.7119992661,7.23826889465
1864720,Vente,325000.0,AV,78310.0,MAUREPAS,78,383,0,1.0,Maison,102.0,5.0,1,290.0,5,2021,3898.308461763137,3240.806557871851,48.7698393561,1.92404037065
1173433,Vente,333000.0,ALL,31470.0,FONTENILLES,31,188,0,1.0,Maison,118.0,4.0,1,965.0,5,2020,2748.430303887484,2524.729051425664,43.5554168376,1.19738282576
1270773,Vente,150000.0,RUE,49530.0,OREE D ANJOU,49,69,0,1.0,Maison,82.0,4.0,1,501.0,7,2020,1857.4182176390789,1718.7274986640443,47.3218941947,-1.26053581871
1685763,Vente,155000.0,RUE,35120.0,DOL DE BRETAGNE,35,95,0,1.0,Maison,95.0,5.0,1,568.0,11,2021,2527.47130672868,1984.3590909739717,48.5364110141,-1.74135530934
420934,Vente,92000.0,RTE,86400.0,BLANZAY,86,29,0,1.0,Maison,78.0,4.0,0,933.0,6,2018,1424.1285841045656,1092.176328282478,46.2071446631,0.255573056586
262948,Vente,125500.0,RUE,59800.0,LILLE,59,350,0,1.0,Maison,90.0,4.0,1,71.0,6,2018,1841.043513312609,2886.5211232273195,50.6317183168,3.04783272312
171340,Vente,100000.0,RUE,36100.0,ISSOUDUN,36,88,0,1.0,Maison,94.0,4.0,1,277.0,4,2018,973.8853702762112,947.5127853449652,46.9489390293,2.00053790133
434916,Vente,260000.0,ALL,91830.0,COUDRAY-MONTCEAUX (LE),91,179,0,1.0,Maison,65.0,4.0,1,535.0,9,2018,3070.8236620285943,2764.590667911283,48.5587791447,2.48742424481
1176761,Vente,90000.0,RUE,33460.0,MACAU,33,262,0,4.0,Local industriel. commercial ou assimilé,155.0,0.0,1,124.0,1,2020,3204.131244492545,2776.685689847098,45.004972156,-0.612661871132
571255,Vente,89800.0,RUE,17200.0,ROYAN,17,306,1,2.0,Appartement,47.0,2.0,0,0.0,3,2019,2403.49003128563,3000.566956161056,45.6346574238,-1.01791403375
1655663,Vente,100000.0,RUE,31420.0,AURIGNAC,31,28,0,3.0,Dépendance,0.0,0.0,1,20.0,8,2021,2886.3562711835907,1241.247253679349,43.2137172821,0.871496161348
1834414,Vente,68000.0,RUE,71500.0,SORNAY,71,528,0,1.0,Maison,93.0,4.0,1,1162.0,6,2021,1416.3464206361605,1204.9205451393916,46.6213260954,5.16979510673
1601358,Vente,81000.0,BD,18000.0,BOURGES,18,33,3,2.0,Appartement,59.0,3.0,0,0.0,3,2021,1132.497445344911,1601.5053975427202,47.0749572013,2.40417137557
1062662,Vente,339000.0,AV,6800.0,CAGNES SUR MER,6,27,0,1.0,Maison,67.0,3.0,1,314.0,6,2020,4002.1834503386026,4175.44973314365,43.6715162078,7.15275703379
1155072,Vente,148000.0,RUE,29800.0,LANDERNEAU,29,103,0,1.0,Maison,88.0,5.0,1,432.0,10,2020,1675.4132547136371,1747.4378079398227,48.4507528968,-4.2643453824
1537092,Vente,46000.0,RUE,1000.0,BOURG-EN-BRESSE,1,53,1,2.0,Appartement,20.0,1.0,0,0.0,2,2021,2315.872738091747,2509.869123590332,46.2051520382,5.24602125501
1794577,Vente,65000.0,RUE,61360.0,PERVENCHERES,61,327,0,1.0,Maison,58.0,4.0,1,280.0,1,2021,1195.1183376120698,1882.4141412348308,48.4439121887,0.411023261659
633531,Vente,130000.0,IMP,30150.0,SAUVETERRE,30,312,0,1.0,Maison,48.0,2.0,1,61.0,3,2019,2062.137539897605,2424.547247675545,44.0168058845,4.80890320388
1651558,Vente,275000.0,RUE,31450.0,NOUEILLES,31,401,0,3.0,Dépendance,0.0,0.0,0,378.0,7,2021,2886.3562711835907,805.0847457627119,43.4150222311,1.52583069326
419151,Vente,70000.0,ESP,85160.0,SAINT-JEAN-DE-MONTS,85,234,1,2.0,Appartement,26.0,1.0,0,0.0,6,2018,1953.329457617189,2288.98718647742,46.8021968737,-2.04839789308
1646709,Vente,119500.0,IMP,30300.0,JONQUIERES-ET-SAINT-VINCENT,30,135,2,2.0,Appartement,48.0,2.0,0,0.0,3,2021,2278.110427584736,2005.1342944574103,43.8279005842,4.55775920877
1408910,Vente,254500.0,RUE,76370.0,PETIT-CAUX,76,618,0,1.0,Maison,128.0,5.0,1,1100.0,12,2020,1973.9442708376116,1926.694985842085,49.9614365259,1.21910748031
897526,Vente,105000.0,RUE,76610.0,LE HAVRE,76,351,0,1.0,Maison,65.0,3.0,1,421.0,12,2019,1894.3399352165504,1971.1912699372929,49.498452502,0.140153719153
1849041,Vente,220000.0,RES,76810.0,LUNERAY,76,400,0,1.0,Maison,140.0,7.0,1,775.0,12,2021,2152.7895751403503,1819.9129197880056,49.8227333447,0.917982419678
194749,Vente,270000.0,RUE,41700.0,COUR CHEVERNY,41,67,0,1.0,Maison,169.0,6.0,1,946.0,8,2018,1268.7711981198036,1606.9295070499757,47.5102298859,1.4769737233
1537732,Vente,99412.0,IMP,1250.0,HAUTECOURT-ROMANECHE,1,184,0,1.0,Maison,68.0,3.0,1,80.0,9,2021,2315.872738091747,1669.9737586405904,46.1611241927,5.42944457639
866524,Vente,27500.0,RUE,70200.0,CLAIREGOUTTE,70,157,0,1.0,Maison,60.0,3.0,1,171.0,7,2019,1049.458191821837,720.9429824561403,47.6628053162,6.63860014681
387881,Vente,12200.0,RUE,79600.0,MAISONTIERS,79,165,0,3.0,Dépendance,0.0,0.0,1,520.0,6,2018,1153.6641731787952,771.604938271605,46.7784936839,-0.263054037852
1652683,Vente,395550.0,CHE,31840.0,AUSSONNE,31,32,0,1.0,Maison,93.0,4.0,1,500.0,10,2021,2886.3562711835907,2712.985770003609,43.6836034494,1.32887054853
468573,Vente,101800.0,SQ,95500.0,GONESSE,95,277,2,2.0,Appartement,54.0,3.0,0,0.0,3,2018,3200.7725458610776,2774.3526511952205,48.9864903049,2.4569899628
1352700,Vente,130000.0,RUE,62219.0,LONGUENESSE,62,525,0,1.0,Maison,82.0,5.0,1,232.0,10,2020,1613.3753532484357,1598.3208208614506,50.7356717764,2.24445927669
844938,Vente,75300.0,RUE,65500.0,ARTAGNAN,65,35,0,1.0,Maison,112.0,3.0,1,216.0,5,2019,1559.2563819233624,786.1607142857142,43.4068464374,0.0826210970042
681105,Vente,98000.0,RUE,35320.0,LE SEL DE BRETAGNE,35,322,0,1.0,Maison,80.0,3.0,1,45.0,11,2019,2256.4914946590666,1555.8777902747229,47.8978195482,-1.60609578245
638231,Vente,160097.0,AV,31400.0,TOULOUSE,31,555,1,2.0,Appartement,19.0,1.0,0,0.0,6,2019,2633.044029650342,3281.30719096462,43.5963814303,1.43167293364
1373993,Vente,419000.0,RUE,69003.0,LYON 3EME,69,383,1,2.0,Appartement,73.0,3.0,0,0.0,7,2020,3512.798515134791,4756.206680245285,45.7533552486,4.86918522013
420371,Vente,60000.0,RUE,86190.0,VOUILLE,86,294,0,4.0,Local industriel. commercial ou assimilé,40.0,0.0,1,40.0,3,2018,1424.1285841045656,1448.4595636951494,46.62150106,0.163409416409
1582085,Vente,236100.0,ALL,13270.0,FOS-SUR-MER,13,39,0,1.0,Maison,71.0,4.0,1,138.0,8,2021,3380.146699931296,2880.101058165601,43.4556812107,4.90452133912
354567,Vente,79500.0,RUE,74130.0,BONNEVILLE,74,42,1,2.0,Appartement,46.0,2.0,0,0.0,5,2018,3373.649643804379,2426.026295812404,46.0739003968,6.40868532191
1801027,Vente,95000.0,RUE,62138.0,DOUVRIN,62,276,0,1.0,Maison,70.0,4.0,1,326.0,9,2021,1736.850043113914,1696.8707191051683,50.5121447638,2.8263130337
1896788,Vente,27000.0,RUE,85120.0,SAINT-PIERRE-DU-CHEMIN,85,264,0,3.0,Dépendance,0.0,0.0,1,36.0,3,2021,2419.145243798272,971.9699505462784,46.6957771744,-0.701777715154
1302863,Vente,140000.0,RUE,56300.0,PONTIVY,56,178,0,1.0,Maison,113.0,4.0,1,644.0,7,2020,2149.6717443068437,1345.5547525690406,48.0729953877,-2.97046592885
1717033,Vente,220000.0,RUE,44521.0,OUDON,44,115,0,1.0,Maison,109.0,4.0,1,590.0,7,2021,3057.976613970435,2474.057297953332,47.3554034497,-1.27120259646
1277215,Vente,190000.0,RUE,50440.0,LA HAGUE,50,41,0,1.0,Maison,58.0,4.0,1,341.0,11,2020,1719.1843745438648,2139.2560880295496,49.6631647329,-1.84267363083
1381155,Vente,80000.0,RUE,69870.0,GRANDRIS,69,93,0,1.0,Maison,87.0,3.0,1,495.0,11,2020,3512.798515134791,1366.750448515363,46.0333930542,4.45932733477
188674,Vente,129000.0,RUE,39270.0,DOMPIERRE-SUR-MONT,39,200,0,1.0,Maison,173.0,6.0,1,1173.0,10,2018,1341.9257428570909,1012.8323699421964,46.5627677979,5.61274460974
1697895,Vente,286500.0,RUE,38080.0,L'ISLE-D'ABEAU,38,193,0,1.0,Maison,95.0,4.0,1,395.0,6,2021,2597.2953441705954,2678.3347905661644,45.6181733164,5.22290423925
741242,Vente,100000.0,RUE,46100.0,SAINT-FELIX,46,266,0,1.0,Maison,136.0,4.0,1,857.0,9,2019,1322.4464214386046,567.6470588235294,44.6124237532,2.11317845009
1730472,Vente,188800.0,RUE,47310.0,ROQUEFORT,47,225,0,1.0,Maison,78.0,3.0,1,436.0,4,2021,1350.785794066678,2266.825638120407,44.1762971751,0.557230787746
1005861,Vente,145000.0,AV,94130.0,NOGENT-SUR-MARNE,94,52,2,2.0,Appartement,28.0,1.0,0,0.0,2,2019,4640.792524670271,5537.637210212393,48.8366634713,2.48166741533
39340,Vente,88190.0,RUE,13001.0,MARSEILLE 1ER,13,201,1,2.0,Appartement,45.0,2.0,0,0.0,1,2018,2839.6070661285644,2326.469234344796,43.2999009436,5.38227869795
170452,Vente,77607.0,RUE,35450.0,VAL-D'IZE,35,347,0,1.0,Maison,79.0,4.0,1,321.0,5,2018,2200.0660652675783,1409.2116613808744,48.1899182799,-1.30478438424
1111970,Vente,170000.0,RUE,17100.0,SAINTES,17,415,0,1.0,Maison,98.0,4.0,1,143.0,7,2020,2511.688405618853,1746.9668454635794,45.7422300162,-0.649623035643
1856792,Vente,140000.0,ALL,77166.0,EVRY-GREGY-SUR-YERRE,77,175,0,1.0,Maison,38.0,2.0,1,46.0,7,2021,3049.7982145495107,4330.694363348122,48.6536042911,2.63969411828
967266,Vente,136100.0,RUE,88650.0,ANOULD,88,9,0,1.0,Maison,72.0,4.0,1,597.0,2,2019,1107.4869831155854,1320.4788365731677,48.1847716703,6.94070062942
1153126,Vente,26000.0,RUE,29830.0,PLOUDALMEZEAU,29,178,0,1.0,Maison,27.0,1.0,1,154.0,2,2020,1675.4132547136371,1928.2532284171336,48.5380194426,-4.66954529014
338947,Vente,45000.0,RUE,71230.0,SAINT VALLIER,71,486,0,1.0,Maison,74.0,4.0,1,347.0,7,2018,1221.2640663690192,937.7644902781796,46.6430898449,4.35996411381
1083401,Vente,79000.0,RUE,13006.0,MARSEILLE 6EME,13,206,1,2.0,Appartement,19.0,1.0,0,0.0,6,2020,3067.933841152668,3456.8217730390406,43.2870989546,5.38104785394
1521654,Vente,240000.0,RUE,97232.0,LE LAMENTIN,972,13,0,1.0,Maison,88.0,4.0,0,462.0,10,2020,2307.011370941253,2324.253297140587,14.6247600105,-60.9933549815
1866231,Vente,483900.0,RUE,78700.0,CONFLANS SAINTE HONORINE,78,172,0,1.0,Maison,130.0,4.0,1,606.0,8,2021,3898.308461763137,4262.160664995272,49.0001007823,2.0990719052
917693,Vente,410751.0,AV,78320.0,MESNIL-SAINT-DENIS (LE),78,397,0,1.0,Maison,160.0,6.0,1,293.0,1,2019,3616.388670675279,3559.2146223709537,48.7402250614,1.96613835861
86286,Vente,118000.0,RUE,22400.0,LAMBALLE,22,93,0,3.0,Dépendance,0.0,0.0,1,967.0,12,2018,1451.422410709248,1740.7946719623535,48.4684404751,-2.49534815954
990810,Vente,309500.0,AV,92130.0,ISSY-LES-MOULINEAUX,92,40,2,2.0,Appartement,38.0,2.0,0,0.0,12,2019,6185.649581291816,7142.074192322631,48.82347434,2.26449823277
174939,Vente,65000.0,RUE,37000.0,TOURS,37,261,1,2.0,Appartement,59.0,3.0,0,0.0,11,2018,1951.6906606025989,2427.594278563697,47.3986382281,0.696526376417
1667755,Vente,200000.0,AV,33560.0,SAINTE EULALIE,33,397,0,1.0,Maison,122.0,5.0,1,85.0,12,2021,3392.8512634121525,2867.25383863168,44.9016662079,-0.479039252599
1464621,Vente,42500.0,RUE,85150.0,SAINT-GEORGES-DE-POINTINDOUX,85,218,0,1.0,Maison,111.0,4.0,1,878.0,5,2020,2179.5947047996806,1472.7069228130556,46.6423470977,-1.62881823574
1428243,Vente,428000.0,RUE,78955.0,CARRIERES SOUS POISSY,78,123,0,1.0,Maison,135.0,6.0,1,631.0,11,2020,3743.241225182282,3512.23762485999,48.9455638989,2.02913706544
1893544,Vente,245000.0,IMP,84600.0,VALREAS,84,138,0,1.0,Maison,99.0,5.0,0,717.0,2,2021,2477.587393603105,1695.964849085569,44.3771588623,4.99354936197
1107626,Vente,380000.0,RUE,17630.0,LA FLOTTE,17,161,0,1.0,Maison,100.0,4.0,1,99.0,12,2020,2511.688405618853,4429.690394432459,46.1793660462,-1.32163012232
283545,Vente,83000.0,RUE,59410.0,ANZIN,59,14,0,1.0,Maison,72.0,4.0,1,136.0,6,2018,1841.043513312609,1042.4580705976284,50.3753643424,3.51113183833
1895532,Vente,325000.0,IMP,85190.0,AIZENAY,85,3,0,1.0,Maison,114.0,4.0,1,861.0,7,2021,2419.145243798272,2253.2717088359927,46.7384516809,-1.62702889721
1274408,Vente,170000.0,RUE,50500.0,CARENTAN LES MARAIS,50,99,0,3.0,Dépendance,0.0,0.0,1,41.0,5,2020,1719.1843745438648,1600.0126304430407,49.2963250601,-1.2559215726
1547720,Vente,165000.0,RUE,4100.0,MANOSQUE,4,112,0,1.0,Maison,66.0,3.0,1,227.0,8,2021,2031.9205467387203,2058.07653182887,43.8354040831,5.79106654173
1236813,Vente,67000.0,BD,42000.0,SAINT-ETIENNE,42,218,1,2.0,Appartement,74.0,2.0,0,0.0,9,2020,1489.3747475130892,1194.981261553361,45.4301235512,4.37913997076
954985,Vente,160000.0,RUE,85150.0,SAINTE-FLAIVE-DES-LOUPS,85,211,0,1.0,Maison,89.0,4.0,1,482.0,6,2019,2032.8651790470667,1600.1678294313956,46.611019489,-1.58031627863
1498268,Vente,360000.0,RUE,93230.0,ROMAINVILLE,93,63,0,1.0,Maison,62.0,3.0,1,278.0,7,2020,4178.525163400703,6674.948107341487,48.8852118968,2.43767884231
1125271,Vente,78000.0,IMP,22410.0,PLOURHAN,22,232,0,1.0,Maison,60.0,1.0,1,209.0,10,2020,1613.3749539492271,1692.866347810204,48.6312552228,-2.88203367765
160167,Vente,179780.0,RUE,34760.0,BOUJAN-SUR-LIBRON,34,37,0,1.0,Maison,103.0,5.0,1,292.0,11,2018,2455.2069794897325,1992.411721811452,43.3803202017,3.26313194789
787848,Vente,109000.0,RUE,59800.0,LILLE,59,350,1,2.0,Appartement,54.0,2.0,0,0.0,9,2019,1878.2179066985084,3008.521568271885,50.6317183168,3.04783272312
432778,Vente,305000.0,RUE,91330.0,YERRES,91,691,0,1.0,Maison,80.0,4.0,1,260.0,1,2018,3070.8236620285943,3188.174484758389,48.7157210712,2.49273020271
954335,Vente,110000.0,IMP,85340.0,SABLES-D'OLONNE (LES),85,194,0,1.0,Maison,45.0,4.0,1,64.0,4,2019,2032.8651790470667,3120.417292358981,0.0,0.0
468757,Vente,244000.0,AV,95400.0,ARNOUVILLE,95,19,0,1.0,Maison,36.0,2.0,1,451.0,5,2018,3200.7725458610776,3147.795802621548,48.9858270233,2.41714370822
186260,Vente,63000.0,RUE,38230.0,PONT-DE-CHERUY,38,316,3,2.0,Appartement,63.0,3.0,0,0.0,10,2018,2176.092263880033,1989.5543396900755,45.7516810527,5.17314203619
591914,Vente,39000.0,RUE,22160.0,CALLAC,22,25,0,1.0,Maison,74.0,3.0,1,137.0,2,2019,1524.354812199807,903.764773508062,48.4223048141,-3.41625904984
1812906,Vente,160600.0,RUE,64270.0,CARRESSE CASSABER,64,168,0,1.0,Maison,93.0,4.0,1,327.0,11,2021,2752.1213971805187,1211.8117175845516,43.4867092033,-0.999430077721
1223385,Vente,189000.0,RTE,38730.0,VILLAGES DU LAC DE PALADRU,38,292,0,1.0,Maison,89.0,4.0,1,587.0,10,2020,2369.9991952531614,1984.596139489493,0.0,0.0
1646260,Vente,145050.0,RUE,30150.0,ROQUEMAURE,30,221,0,1.0,Maison,75.0,3.0,1,58.0,1,2021,2278.110427584736,1928.905733842516,44.0414756862,4.7565701251
1385031,Vente,131000.0,RUE,71380.0,SAINT-MARCEL,71,445,0,1.0,Maison,63.0,4.0,1,427.0,9,2020,1289.2337282472513,1610.2604031942367,46.77487928,4.88727108461
932375,Vente,120000.0,RUE,82000.0,MONTAUBAN,82,121,0,1.0,Maison,88.0,4.0,1,350.0,6,2019,1448.916241633736,1692.3419338989063,44.0222594578,1.36408636501
1128361,Vente,66500.0,RUE,22780.0,LOGUIVY-PLOUGRAS,22,131,0,1.0,Maison,50.0,3.0,1,570.0,2,2020,1613.3749539492271,837.9724159565595,48.5106432062,-3.49141017809
225692,Vente,175000.0,RUE,48000.0,MENDE,48,95,2,2.0,Appartement,148.0,5.0,0,0.0,11,2018,1161.749291925326,1463.4142436785612,44.5294508592,3.48086881176
1907744,Vente,134900.0,RUE,87400.0,ST-LEONARD-DE-NOBLAT,87,161,0,1.0,Maison,118.0,5.0,1,614.0,10,2021,1373.142449164888,1266.634615947993,45.8409102505,1.4960643503
956058,Vente,464000.0,PROM,85100.0,SABLES-D'OLONNE (LES),85,194,2,2.0,Appartement,64.0,3.0,0,0.0,9,2019,2032.8651790470667,3120.417292358981,46.5007612799,-1.79255128677
1933881,Vente,420000.0,AV,94120.0,FONTENAY-SOUS-BOIS,94,33,3,2.0,Appartement,40.0,2.0,0,0.0,3,2021,5049.925367390229,6388.637976725502,48.8511046382,2.47395409774
1515838,Vente,415000.0,RUE,95560.0,MAFFLIERS,95,353,0,1.0,Maison,121.0,5.0,1,505.0,9,2020,3442.3992381360126,3199.954029723173,49.083629147,2.312333333
732252,Vente,162000.0,RUE,44130.0,BLAIN,44,15,0,1.0,Maison,78.0,5.0,1,252.0,10,2019,2672.893914551462,1814.2570324775395,47.4628210409,-1.76789479614
1811892,Vente,271670.0,RUE,64160.0,MORLAAS,64,405,0,1.0,Maison,102.0,6.0,1,1007.0,5,2021,2752.1213971805187,2189.363923815681,43.3345842802,-0.268321408256
793440,Vente,51900.0,RUE,59100.0,ROUBAIX,59,512,1,2.0,Appartement,17.0,1.0,0,0.0,10,2019,1878.2179066985084,1394.5247747383626,50.6879774811,3.18258434623
1600188,Vente,100000.0,RUE,17470.0,LA VILLEDIEU,17,471,0,1.0,Maison,137.0,4.0,1,1181.0,12,2021,2727.78750235737,903.5349978094504,46.0652942658,-0.322967627263
1928313,Vente,174000.0,CITE,93200.0,SAINT-DENIS,93,66,2,2.0,Appartement,63.0,4.0,0,0.0,3,2021,4299.583526849284,4182.258415048972,48.9295650455,2.3592429975
964342,Vente,80000.0,RUE,87150.0,ORADOUR-SUR-VAYRES,87,111,0,1.0,Maison,102.0,4.0,1,348.0,8,2019,1203.524979567434,697.8602441490815,45.74094203,0.879569821515
240724,Vente,240000.0,RUE,51220.0,CORMICY,51,171,0,1.0,Maison,169.0,5.0,1,700.0,12,2018,1820.627575465123,2055.003431267238,49.3768003286,3.90513204967
336026,Vente,70000.0,RUE,70800.0,JASNEY,70,290,0,1.0,Maison,65.0,2.0,1,577.0,8,2018,1018.4876005366252,683.916083916084,47.8699899355,6.17639151599
1554745,Vente,95000.0,RUE,6110.0,LE CANNET,6,30,1,2.0,Appartement,34.0,1.0,0,0.0,2,2021,4117.193508617311,3622.832903386777,43.5729768613,7.00642057758
943372,Vente,349390.0,RTE,83390.0,PUGET-VILLE,83,100,0,1.0,Maison,90.0,4.0,1,803.0,9,2019,3028.019050128541,2220.6382817560675,43.2763475939,6.14893054109
1888071,Vente,75000.0,IMP,83210.0,SOLLIES-TOUCAS,83,131,2,2.0,Appartement,112.0,4.0,0,0.0,7,2021,3274.2657608935,3153.269902170696,43.21282693,5.98693908648
487555,Vente,180000.0,RUE,75015.0,PARIS 15,75,115,1,2.0,Appartement,17.0,1.0,0,0.0,10,2018,8800.865103410846,8949.956243529103,48.8401554186,2.29355937244
1790222,Vente,95000.0,RUE,60130.0,WAVIGNIES,60,701,0,1.0,Maison,80.0,4.0,1,616.0,7,2021,2296.281937025722,1164.2743322767187,49.5467064424,2.35949571781
834990,Vente,85500.0,PL,63400.0,CHAMALIERES,63,75,2,2.0,Appartement,47.0,1.0,0,0.0,6,2019,1661.454316265497,2181.153447620911,45.7747966551,3.0612681838
747423,Vente,260000.0,RUE,49460.0,CANTENAY-EPINARD,49,55,0,1.0,Maison,123.0,7.0,1,565.0,4,2019,1755.9858874791528,2122.2769244224537,47.5380581206,-0.566473143041
423962,Vente,67500.0,RUE,87000.0,LIMOGES,87,85,1,2.0,Appartement,72.0,2.0,0,0.0,4,2018,1192.7031277708747,1410.0386795445058,45.8542549589,1.2487579024
1377889,Vente,480000.0,GR,69540.0,IRIGNY,69,100,0,1.0,Maison,113.0,5.0,1,99.0,5,2020,3512.798515134791,3023.143349171088,45.6748390924,4.81819594216
197398,Vente,210000.0,LOT,42530.0,SAINT GENEST LERPT,42,223,0,1.0,Maison,68.0,3.0,1,900.0,8,2018,1393.1243550043473,1981.345607082338,45.4557410438,4.33134504197
996372,Vente,306000.0,RUE,93290.0,TREMBLAY-EN-FRANCE,93,73,0,1.0,Maison,117.0,4.0,1,450.0,8,2019,3880.6996304966906,3061.1016931412546,48.9784304121,2.55468501543
69084,Vente,205000.0,RUE,17000.0,LA ROCHELLE,17,300,0,1.0,Maison,53.0,3.0,1,453.0,12,2018,2297.994837711253,3327.895438898029,46.1620643972,-1.17465702836
1346580,Vente,74000.0,RTE,62218.0,LOISON SOUS LENS,62,523,0,1.0,Maison,67.0,4.0,1,265.0,5,2020,1613.3753532484357,1518.1937027042477,50.4435308346,2.85832933206
1633241,Vente,172000.0,ALL,29000.0,QUIMPER,29,232,0,1.0,Maison,90.0,5.0,1,412.0,5,2021,1895.38258333154,1999.3287051872692,47.9971425162,-4.09111944455
1751749,Vente,176000.0,RLE,54510.0,TOMBLAINE,54,526,0,1.0,Maison,143.0,5.0,1,107.0,2,2021,1793.9462163789826,2153.968569216813,48.6859541528,6.22129283302
1823048,Vente,399810.0,CHE,69140.0,RILLIEUX-LA-PAPE,69,286,0,1.0,Maison,73.0,3.0,1,491.0,7,2021,3780.174022601986,2942.713416554157,45.8205988109,4.89822639815
1421818,Vente,361000.0,RUE,77144.0,MONTEVRAIN,77,307,0,1.0,Maison,93.0,4.0,1,329.0,9,2020,2850.475936242308,4325.740306476443,48.8682918937,2.74959681841
1018855,Vente,4116.0,RUE,97230.0,SAINTE MARIE,972,28,0,1.0,Maison,118.0,5.0,1,369.0,10,2019,2124.775155656931,1309.9119627987152,14.7689902687,-61.0169082223
37722,Vente,116500.0,LOT,12120.0,COMPS-LA-GRAND-VILLE,12,73,0,1.0,Maison,80.0,5.0,1,770.0,6,2018,1272.4898591071756,1118.611375863091,44.2241967002,2.56911408448
889211,Vente,13500.0,RUE,74500.0,THOLLON-LES-MEMISES,74,279,1,3.0,Dépendance,0.0,0.0,1,12.0,12,2019,3472.6132313446574,2870.9620080691434,46.3828568354,6.7291180359
457474,Vente,180000.0,BD,93250.0,VILLEMOMBLE,93,77,1,2.0,Appartement,80.0,3.0,0,0.0,6,2018,3707.340632937853,3777.3089595026768,48.8848370021,2.50893406035
1600517,Vente,110000.0,RTE,17240.0,CLION,17,111,0,1.0,Maison,100.0,5.0,1,338.0,6,2021,2727.78750235737,1392.9761009548245,45.470800102,-0.509938882977
619839,Vente,145500.0,RUE,29900.0,CONCARNEAU,29,39,2,2.0,Appartement,44.0,2.0,0,0.0,10,2019,1539.5439712293175,2007.0029080320512,47.8966260003,-3.90716871821
821940,Vente,43400.0,RUE,62158.0,LA CAUCHIE,62,216,0,1.0,Maison,76.0,3.0,1,600.0,7,2019,1557.9590705330434,936.1122813163628,50.2049912603,2.58249828284
1363394,Vente,103000.0,RUE,65100.0,LOURDES,65,286,0,1.0,Maison,93.0,5.0,1,174.0,2,2020,1561.681491856124,1266.654116277438,43.1074297344,-0.0768069387932
1630348,Vente,360000.0,RUE,28000.0,CHARTRES,28,85,0,1.0,Maison,117.0,6.0,1,180.0,7,2021,1880.839915882216,2348.873258658839,48.4471464884,1.50570610616
559854,Vente,155000.0,IMP,14210.0,GRAINVILLE-SUR-ODON,14,311,0,1.0,Maison,88.0,4.0,1,735.0,12,2019,2172.41313705498,1764.8266272504304,49.1386270116,-0.531672189444
367908,Vente,253000.0,RUE,77950.0,MOISENAY,77,295,0,1.0,Maison,95.0,3.0,1,132.0,5,2018,2712.1253674670875,2238.229894811393,48.5645621495,2.74111082771
1368050,Vente,135000.0,BD,66200.0,ELNE,66,65,0,4.0,Local industriel. commercial ou assimilé,85.0,0.0,1,81.0,11,2020,1982.0027991228108,1969.8273283284375,42.6008592066,2.97119695146
1500864,Vente,100000.0,RUE,93300.0,AUBERVILLIERS,93,1,2,2.0,Appartement,27.0,1.0,0,0.0,12,2020,4178.525163400703,4060.665530669059,48.9121722626,2.38445513768
1666971,Vente,278250.0,AV,33450.0,ST SULPICE ET CAMEYRAC,33,483,0,1.0,Maison,100.0,5.0,1,195.0,10,2021,3392.8512634121525,2836.0314932073047,44.9006929748,-0.386356667148
1940343,Vente,215750.0,RUE,95330.0,DOMONT,95,199,1,2.0,Appartement,73.0,4.0,0,0.0,9,2021,3628.241927933318,3682.17842170987,49.0296655684,2.32290103729
1082839,Vente,132000.0,RUE,13007.0,MARSEILLE 7EME,13,207,1,2.0,Appartement,38.0,2.0,0,0.0,3,2020,3067.933841152668,3935.356136155041,43.28251778,5.36323440435
1599521,Vente,103710.0,RUE,17400.0,ST JEAN D'ANGELY,17,347,0,1.0,Maison,105.0,3.0,1,79.0,8,2021,2727.78750235737,1270.047782620805,45.9427172637,-0.519834100838
151824,Vente,260000.0,ALL,34570.0,SAUSSAN,34,295,0,1.0,Maison,74.0,3.0,1,348.0,6,2018,2455.2069794897325,2986.5695854721457,43.569013259,3.78095911379
1489415,Vente,320000.0,RUE,91590.0,FERTE-ALAIS (LA),91,232,0,1.0,Maison,126.0,5.0,1,561.0,9,2020,3262.919511372764,2923.7902936891664,48.481221954,2.36734978463
80089,Vente,235000.0,RUE,21000.0,DIJON,21,231,1,2.0,Appartement,102.0,4.0,0,0.0,4,2018,1826.911242637207,2128.528029036041,47.3229437965,5.03788805877
352633,Vente,444000.0,RTE,74330.0,LOVAGNY,74,152,0,1.0,Maison,90.0,4.0,1,790.0,7,2018,3373.649643804379,3387.078962748777,45.9038439081,6.03434039234
7221,Vente,60000.0,RUE,2220.0,BRENELLE,2,120,0,1.0,Maison,53.0,3.0,1,719.0,11,2018,1157.7902712297985,1132.0754716981132,49.3680052078,3.5442035574
1542889,Vente,190000.0,RUE,2130.0,MAREUIL EN DOLE,2,462,0,1.0,Maison,137.0,4.0,1,736.0,8,2021,1276.9440874225506,1614.5244069343066,49.2424552782,3.56114326739
677169,Vente,74800.0,RUE,35000.0,RENNES,35,238,2,2.0,Appartement,28.0,1.0,0,0.0,10,2019,2256.4914946590666,3059.2603936831565,48.1119791219,-1.68186449144
573579,Vente,205596.0,RUE,17300.0,VERGEROUX,17,463,0,1.0,Maison,88.0,4.0,1,331.0,6,2019,2403.49003128563,2019.8231907196196,45.9737006196,-0.986529132827
1114109,Vente,96000.0,RUE,18110.0,SAINT-MARTIN D AUXIGNY,18,223,0,1.0,Maison,87.0,4.0,1,331.0,3,2020,1125.442838010132,1104.0169692507152,47.2103197455,2.38165698999
1360791,Vente,30000.0,RTE,64490.0,SARRANCE,64,506,0,1.0,Maison,106.0,3.0,1,357.0,1,2020,2527.572869805229,684.0980767477896,43.0446957599,-0.575631142614
814808,Vente,101000.0,RUE,60280.0,MARGNY LES COMPIEGNE,60,382,2,2.0,Appartement,38.0,2.0,0,0.0,4,2019,2113.8577232933358,2405.710171293295,49.4329968709,2.8054861143
652135,Vente,193397.0,RUE,33400.0,TALENCE,33,522,0,1.0,Maison,56.0,3.0,1,105.0,6,2019,3079.166238678895,4132.728217658068,44.8060817507,-0.591124592873
1178766,Vente,131000.0,RES,33140.0,VILLENAVE D ORNON,33,550,2,2.0,Appartement,62.0,4.0,0,0.0,10,2020,3204.131244492545,3533.4981297142594,44.773185218,-0.558212256384
67498,Vente,163000.0,RUE,17000.0,LA ROCHELLE,17,300,0,1.0,Maison,33.0,2.0,1,59.0,6,2018,2297.994837711253,3327.895438898029,46.1620643972,-1.17465702836
1726713,Vente,266550.0,CHE,45150.0,JARGEAU,45,173,0,1.0,Maison,127.0,6.0,1,595.0,7,2021,1926.7813248541463,1962.7277315211616,47.8539370317,2.12063354743
897056,Vente,168000.0,ALL,76620.0,LE HAVRE,76,351,0,1.0,Maison,96.0,5.0,1,513.0,10,2019,1894.3399352165504,1971.1912699372929,49.498452502,0.140153719153
512924,Vente,140000.0,RUE,6300.0,NICE,6,88,2,2.0,Appartement,42.0,2.0,0,0.0,8,2019,3817.534555770113,3854.102619096477,43.7119992661,7.23826889465
1763293,Vente,405000.0,RUE,56360.0,LE PALAIS,56,152,0,1.0,Maison,86.0,4.0,1,768.0,10,2021,2353.1240653771283,3485.41006513341,47.3426909682,-3.17102952046
363356,Vente,198000.0,RUE,76600.0,LE HAVRE,76,351,2,2.0,Appartement,75.0,3.0,0,0.0,6,2018,1849.0727098273976,1909.0678637570563,49.498452502,0.140153719153
336495,Vente,60000.0,AV,70170.0,PORT-SUR-SAONE,70,421,0,1.0,Maison,74.0,5.0,1,439.0,4,2018,1018.4876005366252,818.0646560060662,47.692500452,6.03302774909
453018,Vente,383000.0,RUE,93400.0,SAINT-OUEN,93,70,1,2.0,Appartement,76.0,3.0,0,0.0,8,2018,3707.340632937853,5024.462372891426,48.909806575,2.33257042205
1802031,Vente,115000.0,BD,62110.0,HENIN-BEAUMONT,62,427,0,1.0,Maison,155.0,6.0,1,814.0,12,2021,1736.850043113914,1386.5007294367888,50.4092335517,2.95899735168
153090,Vente,55000.0,RUE,34690.0,FABREGUES,34,95,0,1.0,Maison,60.0,3.0,1,37.0,8,2018,2455.2069794897325,2685.4542585639024,43.5344767016,3.77192951891
646745,Vente,65000.0,RUE,32140.0,SAINT-BLANCARD,32,365,0,1.0,Maison,73.0,3.0,1,1100.0,2,2019,1318.3576687437337,1827.1407944657524,43.3503699473,0.656853892371
872051,Vente,125000.0,RUE,71270.0,FRONTENARD,71,208,0,1.0,Maison,122.0,5.0,1,739.0,3,2019,1282.6666612828176,1012.2950819672132,46.8991001814,5.16314384306
503905,Vente,75000.0,CHEM,2400.0,CHATEAU THIERRY,2,168,0,1.0,Maison,105.0,4.0,1,1219.0,6,2019,1158.6612505475027,1581.2314101079594,49.0564070801,3.38160004843
517278,Vente,255000.0,RUE,6390.0,CONTES,6,48,0,2.0,Appartement,60.0,3.0,0,284.0,11,2019,3817.534555770113,3110.048023103407,43.8092959296,7.3242451162
488980,Vente,415000.0,RUE,75017.0,PARIS 17,75,117,2,2.0,Appartement,42.0,2.0,0,0.0,3,2018,8800.865103410846,8958.712069026375,48.8873371665,2.30748555949
904743,Vente,350000.0,RUE,77610.0,MARLES-EN-BRIE,77,277,0,1.0,Maison,150.0,7.0,1,412.0,11,2019,2792.0084946453035,2749.542907576072,48.7249445304,2.88847597866
1546399,Vente,10000.0,PL,3390.0,MONTMARAULT,3,186,0,1.0,Maison,65.0,4.0,1,54.0,8,2021,1131.8425810096269,507.5887804166773,46.3201872756,2.95237432039
797427,Vente,164250.0,RUE,59840.0,PERENCHIES,59,457,0,1.0,Maison,114.0,6.0,1,261.0,9,2019,1878.2179066985084,2189.43281162978,50.6700813687,2.96867396183
454237,Vente,352000.0,RUE,93290.0,TREMBLAY-EN-FRANCE,93,73,0,1.0,Maison,128.0,5.0,1,515.0,2,2018,3707.340632937853,2935.1730656109658,48.9784304121,2.55468501543
1786476,Vente,150000.0,CHE,59300.0,AULNOY-LEZ-VALENCIENNES,59,32,0,1.0,Maison,86.0,3.0,1,178.0,3,2021,2159.521801682729,1665.5012917209658,50.3261545044,3.53764264287
1056681,Vente,213900.0,RUE,6000.0,NICE,6,88,2,2.0,Appartement,87.0,4.0,0,0.0,12,2020,4002.1834503386026,4096.025444129326,43.7119992661,7.23826889465
600408,Vente,212800.0,RUE,25320.0,MONTFERRAND LE CHATEAU,25,397,0,1.0,Maison,86.0,3.0,1,1142.0,11,2019,1743.884040386891,2065.9329378613265,47.1864306678,5.91877377873
319486,Vente,60000.0,RES,66700.0,ARGELES SUR MER,66,8,1,2.0,Appartement,25.0,2.0,0,0.0,6,2018,1914.9416135955369,2557.5716828990926,42.5352193463,3.02429862885
582381,Vente,54000.0,RUE,21000.0,DIJON,21,231,1,2.0,Appartement,23.0,1.0,0,0.0,2,2019,1882.5760811351277,2228.232566062184,47.3229437965,5.03788805877
219839,Vente,100000.0,RUE,45700.0,PANNES,45,247,0,1.0,Maison,69.0,4.0,1,555.0,2,2018,1723.439177769915,1432.935904447494,48.0121009913,2.66878562628
890479,Vente,145000.0,RUE,76000.0,ROUEN,76,540,0,1.0,Maison,40.0,3.0,1,335.0,6,2019,1894.3399352165504,2518.7369485057247,49.4413460103,1.09256784278
1045712,Vente,17000.0,RUE,2140.0,HARCIGNY,2,369,0,3.0,Dépendance,0.0,0.0,1,569.0,7,2020,1198.14719255845,273.972602739726,49.80256362,3.9828364762
791868,Vente,135200.0,RUE,59184.0,SAINGHIN-EN-WEPPES,59,524,0,1.0,Maison,56.0,3.0,1,119.0,7,2019,1878.2179066985084,2107.1328299043284,50.5583359872,2.89740255201
1219178,Vente,65500.0,RUE,38500.0,VOIRON,38,563,2,2.0,Appartement,35.0,2.0,0,0.0,2,2020,2369.9991952531614,2030.4915959338143,45.3791720843,5.58240310671
430302,Vente,130000.0,RUE,89500.0,VILLENEUVE SUR YONNE,89,464,0,1.0,Maison,96.0,4.0,1,1044.0,3,2018,1280.428801523385,1399.5656421575266,48.0817729554,3.3198884982
1799978,Vente,89000.0,RUE,62980.0,NOYELLES-LES-VERMELLES,62,626,0,1.0,Maison,69.0,5.0,1,731.0,5,2021,1736.850043113914,1731.661533133782,50.4912262518,2.72838985487
1156639,Vente,100000.0,RUE,29260.0,LESNEVEN,29,124,0,1.0,Maison,75.0,4.0,1,215.0,5,2020,1675.4132547136371,1587.916122874283,48.5801251196,-4.31293757639
1720700,Vente,151000.0,RUE,44350.0,GUERANDE,44,69,0,1.0,Maison,27.0,2.0,1,34.0,3,2021,3057.976613970435,3248.336464846475,47.3313320913,-2.41703658813
1139487,Vente,324100.0,ALL,26120.0,MONTELIER,26,197,0,1.0,Maison,109.0,4.0,1,400.0,6,2020,1947.9134753704864,2800.8348517474365,44.9426423498,5.02096570564
1330987,Vente,228941.0,RUE,60390.0,AUNEUIL,60,29,0,1.0,Maison,68.0,2.0,1,779.0,3,2020,2161.542883829814,2191.519468712617,49.3702714618,1.99554869838
1066941,Vente,110000.0,RUE,8700.0,NOUZONVILLE,8,328,0,1.0,Maison,65.0,3.0,1,1019.0,12,2020,1177.846550342357,1001.2319279029348,49.819774473,4.75390800409
625233,Vente,65000.0,RUE,29690.0,LE HUELGOAT,29,81,0,1.0,Maison,86.0,5.0,1,350.0,7,2019,1539.5439712293175,1050.9789734445717,48.3615514061,-3.75817537147
1565429,Vente,145000.0,RUE,10100.0,ROMILLY SUR SEINE,10,323,0,1.0,Maison,109.0,4.0,1,317.0,8,2021,1697.6235473211989,1289.631978803906,48.5185939749,3.72154151549
1001743,Vente,205200.0,ALL,94260.0,FRESNES,94,34,2,2.0,Appartement,64.0,3.0,0,0.0,1,2019,4640.792524670271,3222.537266701249,48.7571343016,2.32612839743
1654429,Vente,285550.0,RUE,31600.0,EAUNES,31,165,0,1.0,Maison,103.0,4.0,1,772.0,6,2021,2886.3562711835907,2506.0847680116603,43.4276929383,1.35897762267
736566,Vente,45000.0,RUE,45400.0,SEMOY,45,308,0,3.0,Dépendance,0.0,0.0,1,165.0,10,2019,1758.365498712963,2162.3871411580344,47.9380661879,1.96315992234
487317,Vente,13000.0,RUE,75015.0,PARIS 15,75,115,1,2.0,Appartement,26.0,1.0,0,0.0,9,2018,8800.865103410846,8949.956243529103,48.8401554186,2.29355937244
475833,Vente,158000.0,RUE,97233.0,SCHOELCHER,972,29,1,2.0,Appartement,58.0,3.0,0,0.0,7,2018,2096.016088323401,2325.181027750332,14.6449217661,-61.100038609
837486,Vente,103000.0,PL,63200.0,RIOM,63,300,1,2.0,Appartement,84.0,3.0,0,0.0,7,2019,1661.454316265497,1809.643853103193,45.8942667778,3.13246469719
1805798,Vente,249950.0,RUE,62600.0,BERCK,62,108,0,1.0,Maison,74.0,4.0,1,259.0,12,2021,1736.850043113914,2405.3719158629965,50.4141574341,1.58229663833
843544,Vente,285000.0,RUE,64600.0,ANGLET,64,24,2,2.0,Appartement,59.0,3.0,0,0.0,10,2019,2463.614232092882,4191.361308976163,43.4917846595,-1.51623373371
1375320,Vente,204200.0,AV,69800.0,SAINT-PRIEST,69,290,1,2.0,Appartement,62.0,3.0,0,0.0,3,2020,3512.798515134791,2838.7490309198065,45.701466556,4.94882071665
385078,Vente,85000.0,ALL,79270.0,FRONTENAY-ROHAN-ROHAN,79,130,3,2.0,Appartement,57.0,3.0,0,0.0,3,2018,1153.6641731787952,1221.993946018366,46.2557084922,-0.540123397468
1384963,Vente,85000.0,CHE,71240.0,SAINT-CYR,71,402,0,1.0,Maison,125.0,4.0,1,510.0,9,2020,1289.2337282472513,1340.6024851801185,46.6791536677,4.90050025353
193792,Vente,146000.0,RUE,40530.0,LABENNE,40,133,4,2.0,Appartement,45.0,2.0,0,0.0,12,2018,2237.755987010988,3040.3992405212675,43.5956638895,-1.42969814773
151573,Vente,150300.0,IMP,34430.0,SAINT-JEAN-DE-VEDAS,34,270,3,2.0,Appartement,75.0,3.0,0,0.0,5,2018,2455.2069794897325,2998.370485131825,43.5716282319,3.83221847952
1762025,Vente,275000.0,RUE,56520.0,GUIDEL,56,78,0,1.0,Maison,128.0,7.0,1,757.0,9,2021,2353.1240653771283,2923.237404448689,47.7940076851,-3.49161886127
1749032,Vente,75000.0,IMP,53100.0,MAYENNE,53,147,0,1.0,Maison,86.0,4.0,1,724.0,3,2021,1418.1120056334817,1434.883458682613,48.3074609449,-0.614799950799
1631646,Vente,121000.0,RUE,28700.0,AUNAY SOUS AUNEAU,28,13,0,1.0,Maison,160.0,5.0,1,307.0,12,2021,1880.839915882216,2062.559056380722,48.4428553048,1.81371743832
804950,Vente,127000.0,RUE,59600.0,MAUBEUGE,59,392,0,1.0,Maison,102.0,5.0,1,638.0,6,2019,1878.2179066985084,973.009467717234,50.283630719,3.96328053037
1948792,Vente,190000.0,AV,75019.0,PARIS 19,75,119,1,2.0,Appartement,19.0,1.0,0,0.0,9,2021,10069.78022283118,8778.796580075616,48.886868623,2.38469432787
444639,Vente,386700.0,RUE,92300.0,LEVALLOIS-PERRET,92,44,1,2.0,Appartement,32.0,2.0,0,0.0,2,2018,5815.240033179571,8184.179309663192,48.895071672,2.28688268127
1432646,Vente,172000.0,RUE,79100.0,LOUZY,79,157,0,1.0,Maison,123.0,6.0,1,915.0,5,2020,1227.3870464561571,1133.9674811123411,47.0176127367,-0.180557135196
473779,Vente,1.0,CHE,95220.0,HERBLAY-SUR-SEINE,95,306,0,1.0,Maison,105.0,3.0,1,20.0,9,2018,3200.7725458610776,3520.0285866747126,49.0007002763,2.14967680776
1574601,Vente,265000.0,AV,13600.0,LA CIOTAT,13,28,1,2.0,Appartement,60.0,2.0,0,0.0,3,2021,3380.146699931296,4308.000484289641,43.1926410861,5.61318955778
62305,Vente,80000.0,RUE,15320.0,VAL D'ARCOMIE,15,108,0,1.0,Maison,97.0,5.0,1,561.0,7,2018,1111.3742310700086,968.0394522017776,44.9384891268,3.20556437292
1093091,Vente,426000.0,BD,13500.0,MARTIGUES,13,56,0,1.0,Maison,163.0,5.0,1,460.0,11,2020,3067.933841152668,2891.9911424033808,43.3798920489,5.04945402314
1291316,Vente,229900.0,CHE,54110.0,ROSIERES-AUX-SALINES,54,462,0,1.0,Maison,116.0,4.0,1,954.0,12,2020,1668.699541329546,1571.5922037940145,48.5924316341,6.33430536376
473031,Vente,347000.0,ALL,95220.0,HERBLAY,95,306,0,1.0,Maison,70.0,5.0,1,459.0,5,2018,3200.7725458610776,3758.874640282492,49.0007002763,2.14967680776
377258,Vente,250000.0,RUE,78000.0,VERSAILLES,78,646,3,2.0,Appartement,36.0,2.0,0,0.0,7,2018,3577.6967096557737,5794.59793753753,48.8025669671,2.11789297191
1063509,Vente,147000.0,PL,7260.0,JOYEUSE,7,110,3,2.0,Appartement,100.0,3.0,0,0.0,6,2020,1699.7837186988158,1704.4418414845516,44.470531994,4.24753667585
1851778,Vente,75000.0,RUE,76280.0,CRIQUETOT-L ESNEVAL,76,196,0,1.0,Maison,40.0,2.0,1,44.0,3,2021,2152.7895751403503,2544.783638593786,49.6368976314,0.267256823933
407095,Vente,60000.0,RUE,84000.0,AVIGNON,84,7,1,2.0,Appartement,40.0,2.0,0,0.0,1,2018,2165.896148808304,2062.781027722727,43.9352448339,4.84071572505
1505416,Vente,224000.0,RUE,94100.0,SAINT-MAUR-DES-FOSSES,94,68,2,2.0,Appartement,53.0,3.0,0,0.0,4,2020,4926.049433240267,5613.112764383253,48.7990677797,2.49386450452
46605,Vente,115000.0,RUE,13008.0,MARSEILLE 8EME,13,208,1,2.0,Appartement,30.0,2.0,0,0.0,10,2018,2839.6070661285644,3200.140122929972,43.2417271832,5.37464436293
894890,Vente,85600.0,BD,76260.0,EU,76,255,0,1.0,Maison,59.0,3.0,1,150.0,8,2019,1894.3399352165504,1324.3868844628237,50.0413268784,1.42861757801
1658335,Vente,360000.0,RUE,33400.0,TALENCE,33,522,0,1.0,Maison,74.0,3.0,1,107.0,3,2021,3392.8512634121525,4457.44685481014,44.8060817507,-0.591124592873
